[
  {
    "name": "Yebo Beach Haus",
    "address": "56 E Andrews Dr NW Unit 7, Atlanta, GA 30305, USA",
    "city": "Atlanta",
    "cuisine": "Southern African",
    "neighborhood": "Buckhead",
    "website": "https://yebobeachhaus.com/",
    "lat": 33.8429998,
    "lon": -84.38099919999999,
    "program": "chase"
  },
  {
    "name": "The Garden Room",
    "address": "88 W Paces Ferry Rd NW, Atlanta, GA 30305, USA",
    "city": "Atlanta",
    "cuisine": "Contemporary American",
    "neighborhood": "Buckhead",
    "website": "https://thegardenroomatlanta.com/",
    "lat": 33.8398483,
    "lon": -84.3826334,
    "program": "chase"
  },
  {
    "name": "Lazy Betty",
    "address": "999 Peachtree St NE Suite #140, Atlanta, GA 30309, USA",
    "city": "Atlanta",
    "cuisine": "Contemporary American",
    "neighborhood": "Midtown",
    "website": "http://lazybettyatl.com/",
    "lat": 33.7813991,
    "lon": -84.3836584,
    "program": "chase"
  },
  {
    "name": "The Alden",
    "address": "5070 Peachtree Blvd Suite B-140, Chamblee, GA 30341, USA",
    "city": "Atlanta",
    "cuisine": "American",
    "neighborhood": "Chamblee",
    "website": "http://www.thealdenrestaurant.com/",
    "lat": 33.8886215,
    "lon": -84.31420949999999,
    "program": "chase"
  },
  {
    "name": "Little Sparrow",
    "address": "1198 Howell Ml Rd #18, Atlanta, GA 30318, USA",
    "city": "Atlanta",
    "cuisine": "American",
    "neighborhood": "West Midtown",
    "website": "http://littlesparrowatl.com/",
    "lat": 33.7865629,
    "lon": -84.4123343,
    "program": "chase"
  },
  {
    "name": "The Optimist",
    "address": "914 Howell Ml Rd, Atlanta, GA 30318, USA",
    "city": "Atlanta",
    "cuisine": "Seafood",
    "neighborhood": "West Midtown",
    "website": "https://www.theoptimistrestaurant.com/",
    "lat": 33.779813499999996,
    "lon": -84.4104515,
    "program": "chase"
  },
  {
    "name": "Canoe",
    "address": "4199 Paces Ferry Rd SE, Atlanta, GA 30339, USA",
    "city": "Atlanta",
    "cuisine": "American",
    "neighborhood": "Vinings",
    "website": "http://www.canoeatl.com/",
    "lat": 33.859739999999995,
    "lon": -84.455173,
    "program": "chase"
  },
  {
    "name": "Ray's on the River",
    "address": "6700 Powers Ferry Rd NW, Sandy Springs, GA 30339, USA",
    "city": "Atlanta",
    "cuisine": "Steak",
    "neighborhood": "Sandy Springs",
    "website": "https://raysontheriver.com/",
    "lat": 33.900492,
    "lon": -84.44080199999999,
    "program": "chase"
  },
  {
    "name": "Mujō",
    "address": "691 14th St NW c, Atlanta, GA 30318, USA",
    "city": "Atlanta",
    "cuisine": "Japanese",
    "neighborhood": "West Midtown",
    "website": "https://www.mujoatl.com/",
    "lat": 33.7861591,
    "lon": -84.41142239999999,
    "program": "chase"
  },
  {
    "name": "Red Ash Italia",
    "address": "Colorado Tower, 303 Colorado St #200, Austin, TX 78701, USA",
    "city": "Austin",
    "cuisine": "Italian",
    "neighborhood": "Downtown",
    "website": "http://redashgrill.com/",
    "lat": 30.2657022,
    "lon": -97.74494089999999,
    "program": "chase"
  },
  {
    "name": "Este",
    "address": "2113 Manor Rd, Austin, TX 78722, USA",
    "city": "Austin",
    "cuisine": "Contemporary Mexican",
    "neighborhood": "East Austin",
    "website": "http://esteatx.com/",
    "lat": 30.283932500000002,
    "lon": -97.7194787,
    "program": "chase"
  },
  {
    "name": "Comedor",
    "address": "501 Colorado St, Austin, TX 78701, USA",
    "city": "Austin",
    "cuisine": "Mexican",
    "neighborhood": "Downtown",
    "website": "https://comedortx.com/",
    "lat": 30.267599299999997,
    "lon": -97.744164,
    "program": "chase"
  },
  {
    "name": "Clark's Oyster Bar - Austin",
    "address": "1200 W 6th St, Austin, TX 78703, USA",
    "city": "Austin",
    "cuisine": "Seafood",
    "neighborhood": "Clarksville",
    "website": "https://www.clarksoysterbar.com/locations/austin",
    "lat": 30.2729938,
    "lon": -97.7571715,
    "program": "chase"
  },
  {
    "name": "Hestia",
    "address": "607 W 3rd St #105, Austin, TX 78701, USA",
    "city": "Austin",
    "cuisine": "Contemporary American",
    "neighborhood": "Downtown",
    "website": "http://hestiaaustin.com/",
    "lat": 30.2667619,
    "lon": -97.7500735,
    "program": "chase"
  },
  {
    "name": "Suerte",
    "address": "1800 E 6th St, Austin, TX 78702, USA",
    "city": "Austin",
    "cuisine": "Contemporary Mexican",
    "neighborhood": "East Austin",
    "website": "https://www.suerteatx.com/",
    "lat": 30.2622778,
    "lon": -97.7232758,
    "program": "chase"
  },
  {
    "name": "Kemuri Tatsu-ya",
    "address": "2713 E 2nd St, Austin, TX 78702, USA",
    "city": "Austin",
    "cuisine": "Barbecue",
    "neighborhood": "East Austin",
    "website": "http://kemuri-tatsuya.com/",
    "lat": 30.253838,
    "lon": -97.712949,
    "program": "chase"
  },
  {
    "name": "La Condesa",
    "address": "400A W 2nd St, Austin, TX 78701, USA",
    "city": "Austin",
    "cuisine": "Mexican",
    "neighborhood": "Downtown",
    "website": "https://lacondesa.com/",
    "lat": 30.265639099999998,
    "lon": -97.7477811,
    "program": "chase"
  },
  {
    "name": "Emmer & Rye",
    "address": "SkyHouse, 51 Rainey St UNIT 110, Austin, TX 78701, USA",
    "city": "Austin",
    "cuisine": "American",
    "neighborhood": "Downtown",
    "website": "http://www.emmerandrye.com/",
    "lat": 30.257419400000003,
    "lon": -97.7390667,
    "program": "chase"
  },
  {
    "name": "Perla's Seafood and Oyster Bar",
    "address": "1400 S Congress Ave, Austin, TX 78704, USA",
    "city": "Austin",
    "cuisine": "Seafood",
    "neighborhood": "South Congress",
    "website": "http://perlasaustin.com/",
    "lat": 30.249958499999995,
    "lon": -97.7500913,
    "program": "chase"
  },
  {
    "name": "OKO",
    "address": "1100 E 6th St, Austin, TX 78702, USA",
    "city": "Austin",
    "cuisine": "Asian",
    "neighborhood": "East Austin",
    "website": "https://okoaustin.com/",
    "lat": 30.264849800000004,
    "lon": -97.7312949,
    "program": "chase"
  },
  {
    "name": "Birdie's",
    "address": "2944 E 12th St Unit A, Austin, TX 78702, USA",
    "city": "Austin",
    "cuisine": "Farm-to-table",
    "neighborhood": "East Austin",
    "website": "https://www.birdiesaustin.com/",
    "lat": 30.276408199999995,
    "lon": -97.7045648,
    "program": "chase"
  },
  {
    "name": "Nixta Taqueria",
    "address": "2512 E 12th St, Austin, TX 78702, USA",
    "city": "Austin",
    "cuisine": "Mexican",
    "neighborhood": "East Austin",
    "website": "https://nixtataqueria.com/",
    "lat": 30.275009100000002,
    "lon": -97.7132754,
    "program": "chase"
  },
  {
    "name": "The Ruxton",
    "address": "720 Aliceanna St, Baltimore, MD 21202, USA",
    "city": "Baltimore",
    "cuisine": "Steakhouse",
    "neighborhood": "Harbor East",
    "website": "http://theruxtonsteakhouse.com/",
    "lat": 39.283377099999996,
    "lon": -76.6023062,
    "program": "chase"
  },
  {
    "name": "Azumi",
    "address": "725 Aliceanna St, Baltimore, MD 21202, USA",
    "city": "Baltimore",
    "cuisine": "Japanese",
    "neighborhood": "Harbor East",
    "website": "http://www.azumirestaurant.com/",
    "lat": 39.2827766,
    "lon": -76.6029077,
    "program": "chase"
  },
  {
    "name": "Cypriana - Homewood",
    "address": "105 W 39th St, Baltimore, MD 21210, USA",
    "city": "Baltimore",
    "cuisine": "Mediterranean",
    "neighborhood": "Hampden",
    "website": "https://cypriana.com/",
    "lat": 39.3361868,
    "lon": -76.6215818,
    "program": "chase"
  },
  {
    "name": "MARTA",
    "address": "2127 E Pratt St, Baltimore, MD 21231, USA",
    "city": "Baltimore",
    "cuisine": "Contemporary American",
    "neighborhood": "Upper Fells Point",
    "website": "https://www.martabaltimore.com/",
    "lat": 39.2894173,
    "lon": -76.5862162,
    "program": "chase"
  },
  {
    "name": "Amazonia",
    "address": "920 Blagden Alley NW 2nd Floor, Washington, DC 20001, USA",
    "city": "Baltimore",
    "cuisine": "Peruvian",
    "neighborhood": "Mount Vernon Square",
    "website": "http://amazoniadc.com/",
    "lat": 38.9065162,
    "lon": -77.0247586,
    "program": "chase"
  },
  {
    "name": "Dauphine's",
    "address": "1100 15th St NW, Washington, DC 20005, USA",
    "city": "Baltimore",
    "cuisine": "Contemporary American",
    "neighborhood": "Downtown",
    "website": "http://www.dauphinesdc.com/",
    "lat": 38.9042719,
    "lon": -77.0349714,
    "program": "chase"
  },
  {
    "name": "Bresca",
    "address": "1906 14th St NW, Washington, DC 20009, USA",
    "city": "Baltimore",
    "cuisine": "Contemporary French / American",
    "neighborhood": "U Street Corridor",
    "website": "http://www.brescadc.com/",
    "lat": 38.9158067,
    "lon": -77.03219539999999,
    "program": "chase"
  },
  {
    "name": "Xiquet by Danny Lledó",
    "address": "2404 Wisconsin Ave NW, Washington, DC 20007, USA",
    "city": "Baltimore",
    "cuisine": "Spanish",
    "neighborhood": "Georgetown",
    "website": "https://www.xiquetdl.com/",
    "lat": 38.9212801,
    "lon": -77.0724259,
    "program": "chase"
  },
  {
    "name": "The Duck and the Peach",
    "address": "300 7th St SE, Washington, DC 20003, USA",
    "city": "Baltimore",
    "cuisine": "American",
    "neighborhood": "Capitol Hill",
    "website": "https://www.duckandpeachdc.com/",
    "lat": 38.885751,
    "lon": -76.995919,
    "program": "chase"
  },
  {
    "name": "Thip Khao",
    "address": "3462 14th St NW, Washington, DC 20010, USA",
    "city": "Baltimore",
    "cuisine": "Laotian",
    "neighborhood": "Columbia Heights / Brightwood",
    "website": "http://www.thipkhao.com/",
    "lat": 38.9329915,
    "lon": -77.0329838,
    "program": "chase"
  },
  {
    "name": "Elmina",
    "address": "2208 14th St NW, Washington, DC 20009, USA",
    "city": "Baltimore",
    "cuisine": "African",
    "neighborhood": "U Street Corridor",
    "website": "https://www.elminarestaurant.com/",
    "lat": 38.9195509,
    "lon": -77.0323219,
    "program": "chase"
  },
  {
    "name": "Causa",
    "address": "920 Blagden Alley NW 1st Floor, Washington, DC 20001, USA",
    "city": "Baltimore",
    "cuisine": "Peruvian",
    "neighborhood": "Shaw",
    "website": "https://causadc.com/",
    "lat": 38.9069113,
    "lon": -77.0247957,
    "program": "chase"
  },
  {
    "name": "El Taller del Xiquet",
    "address": "2404 Wisconsin Ave NW 1st Floor, Washington, DC 20007, USA",
    "city": "Baltimore",
    "cuisine": "Spanish",
    "neighborhood": "Georgetown",
    "website": "https://www.eltallerdelxiquet.com/",
    "lat": 38.9212801,
    "lon": -77.0724259,
    "program": "chase"
  },
  {
    "name": "Service Bar",
    "address": "111 W Centre St, Baltimore, MD 21201, USA",
    "city": "Baltimore",
    "cuisine": "Cocktail Bar",
    "neighborhood": "Mount Vernon Square",
    "website": "https://unitybarrestaurant.com/",
    "lat": 39.296079899999995,
    "lon": -76.61791339999999,
    "program": "chase"
  },
  {
    "name": "Grill 23 & Bar",
    "address": "161 Berkeley St, Boston, MA 02116, USA",
    "city": "Boston",
    "cuisine": "Steak",
    "neighborhood": "Back Bay",
    "website": "http://www.grill23.com/",
    "lat": 42.3494604,
    "lon": -71.071962,
    "program": "chase"
  },
  {
    "name": "Bistro du Midi",
    "address": "272 Boylston St, Boston, MA 02116, USA",
    "city": "Boston",
    "cuisine": "French",
    "neighborhood": "Back Bay",
    "website": "http://www.bistrodumidi.com/",
    "lat": 42.3519437,
    "lon": -71.0694912,
    "program": "chase"
  },
  {
    "name": "The Banks Seafood and Steak",
    "address": "406 Stuart St, Boston, MA 02116, USA",
    "city": "Boston",
    "cuisine": "Seafood",
    "neighborhood": "Back Bay",
    "website": "http://thebanksboston.com/",
    "lat": 42.348856399999995,
    "lon": -71.0740315,
    "program": "chase"
  },
  {
    "name": "Toro",
    "address": "1704 Washington St, Boston, MA 02118, USA",
    "city": "Boston",
    "cuisine": "Tapas / Small Plates",
    "neighborhood": "South End",
    "website": "https://www.toro-restaurant.com/",
    "lat": 42.3369796,
    "lon": -71.0759234,
    "program": "chase"
  },
  {
    "name": "Mahaniyom",
    "address": "236 Washington St, Brookline, MA 02445, USA",
    "city": "Boston",
    "cuisine": "Thai",
    "neighborhood": "Brookline",
    "website": "http://www.mahaniyomboston.com/",
    "lat": 42.3326522,
    "lon": -71.1188664,
    "program": "chase"
  },
  {
    "name": "Uni",
    "address": "370A Commonwealth Ave, Boston, MA 02215, USA",
    "city": "Boston",
    "cuisine": "Contemporary Asian",
    "neighborhood": "Back Bay",
    "website": "https://uni-boston.com/",
    "lat": 42.348675799999995,
    "lon": -71.0887998,
    "program": "chase"
  },
  {
    "name": "La Royal",
    "address": "221 Concord Ave, Cambridge, MA 02138, USA",
    "city": "Boston",
    "cuisine": "Peruvian",
    "neighborhood": "Cambridge",
    "website": "http://www.laroyalcambridge.com/",
    "lat": 42.3828679,
    "lon": -71.1315211,
    "program": "chase"
  },
  {
    "name": "Celeste",
    "address": "21 Bow St, Somerville, MA 02143, USA",
    "city": "Boston",
    "cuisine": "Peruvian",
    "neighborhood": "Somerville",
    "website": "https://celesteunionsquare.com/",
    "lat": 42.381347,
    "lon": -71.09728660000002,
    "program": "chase"
  },
  {
    "name": "Hemenway's",
    "address": "121 S Main St, Providence, RI 02903, USA",
    "city": "Boston",
    "cuisine": "Seafood",
    "neighborhood": "Providence",
    "website": "https://www.hemenwaysrestaurant.com/",
    "lat": 41.8242135,
    "lon": -71.4069133,
    "program": "chase"
  },
  {
    "name": "Waterman Grille",
    "address": "4 Richmond Square, Providence, RI 02906, USA",
    "city": "Boston",
    "cuisine": "American",
    "neighborhood": "Providence",
    "website": "https://www.watermangrille.com/",
    "lat": 41.827296,
    "lon": -71.38099,
    "program": "chase"
  },
  {
    "name": "Gracie's",
    "address": "194 Washington St, Providence, RI 02903, USA",
    "city": "Boston",
    "cuisine": "Contemporary American",
    "neighborhood": "Providence",
    "website": "https://graciesprov.com/",
    "lat": 41.822057,
    "lon": -71.4158905,
    "program": "chase"
  },
  {
    "name": "Los Andes Restaurant",
    "address": "903 Chalkstone Ave, Providence, RI 02908, USA",
    "city": "Boston",
    "cuisine": "Peruvian",
    "neighborhood": "Providence",
    "website": "http://www.losandesri.com/",
    "lat": 41.8332623,
    "lon": -71.4373663,
    "program": "chase"
  },
  {
    "name": "Oak Steakhouse - Charleston",
    "address": "17 Broad St, Charleston, SC 29401, USA",
    "city": "Charleston",
    "cuisine": "Steakhouse",
    "neighborhood": "Downtown Charleston",
    "website": "https://www.oaksteakhouserestaurant.com/location/oak-steakhouse-charleston/?y_source=1_ODE4NDQwNTgtNzE1LWxvY2F0aW9uLndlYnNpdGU%3D",
    "lat": 32.7766196,
    "lon": -79.9278501,
    "program": "chase"
  },
  {
    "name": "Tempest",
    "address": "32 N Market St Suite C, Charleston, SC 29401, USA",
    "city": "Charleston",
    "cuisine": "Contemporary American",
    "neighborhood": "Downtown Charleston",
    "website": "http://www.tempestcharleston.com/",
    "lat": 32.7812976,
    "lon": -79.9276659,
    "program": "chase"
  },
  {
    "name": "Southbound",
    "address": "72 Cannon St, Charleston, SC 29403, USA",
    "city": "Charleston",
    "cuisine": "American",
    "neighborhood": "Downtown Charleston",
    "website": "http://southboundchs.com/",
    "lat": 32.79018990000001,
    "lon": -79.94508920000001,
    "program": "chase"
  },
  {
    "name": "Ma'am Saab",
    "address": "251 Meeting St, Charleston, SC 29401, USA",
    "city": "Charleston",
    "cuisine": "Pakistani",
    "neighborhood": "Downtown Charleston",
    "website": "http://maamsaabchs.com/",
    "lat": 32.783343099999996,
    "lon": -79.93216749999999,
    "program": "chase"
  },
  {
    "name": "La Belle Helene",
    "address": "300 S Tryon St #100, Charlotte, NC 28202, USA",
    "city": "Charlotte",
    "cuisine": "French",
    "neighborhood": "Uptown",
    "website": "http://www.labellehelenerestaurant.com/",
    "lat": 35.2256085,
    "lon": -80.8457662,
    "program": "chase"
  },
  {
    "name": "Fin & Fino - Uptown Charlotte",
    "address": "135 Levine Avenue of the Arts #100, Charlotte, NC 28202, USA",
    "city": "Charlotte",
    "cuisine": "Seafood",
    "neighborhood": "Uptown",
    "website": "http://www.finandfino.com/",
    "lat": 35.224554399999995,
    "lon": -80.84828949999999,
    "program": "chase"
  },
  {
    "name": "Customshop",
    "address": "1601 Elizabeth Ave, Charlotte, NC 28204, USA",
    "city": "Charlotte",
    "cuisine": "Contemporary American",
    "neighborhood": "Elizabeth",
    "website": "http://www.customshopfood.com/",
    "lat": 35.2138889,
    "lon": -80.8263889,
    "program": "chase"
  },
  {
    "name": "The Goodyear House",
    "address": "3032 N Davidson St, Charlotte, NC 28205, USA",
    "city": "Charlotte",
    "cuisine": "Southern",
    "neighborhood": "NODA",
    "website": "https://thegoodyearhouse.com/",
    "lat": 35.2460173,
    "lon": -80.80715029999999,
    "program": "chase"
  },
  {
    "name": "Rooster's Ballantyne",
    "address": "15110 Bowl St #101, Charlotte, NC 28277, USA",
    "city": "Charlotte",
    "cuisine": "American",
    "neighborhood": "Ballantyne",
    "website": "https://www.roosterskitchen.com/ballantyne",
    "lat": 35.0573504,
    "lon": -80.84518539999999,
    "program": "chase"
  },
  {
    "name": "Alla Vita",
    "address": "564 W Randolph St, Chicago, IL 60661, USA",
    "city": "Chicago",
    "cuisine": "Contemporary Italian",
    "neighborhood": "West Loop",
    "website": "https://www.allavitachicago.com/",
    "lat": 41.884577,
    "lon": -87.64252139999999,
    "program": "chase"
  },
  {
    "name": "Mott Street",
    "address": "1401 N Ashland Ave, Chicago, IL 60622, USA",
    "city": "Chicago",
    "cuisine": "Central Asian",
    "neighborhood": "Bucktown / Wicker Park",
    "website": "http://mottstreetchicago.com/",
    "lat": 41.9071223,
    "lon": -87.6672277,
    "program": "chase"
  },
  {
    "name": "Akahoshi Ramen",
    "address": "2340 N California Ave Suite B, Chicago, IL 60647, USA",
    "city": "Chicago",
    "cuisine": "Japanese",
    "neighborhood": "Logan Square",
    "website": "https://akahoshiramen.com/",
    "lat": 41.9240215,
    "lon": -87.6975223,
    "program": "chase"
  },
  {
    "name": "Mirra",
    "address": "1954 W Armitage Ave, Chicago, IL 60622, USA",
    "city": "Chicago",
    "cuisine": "Mexican",
    "neighborhood": "Bucktown / Wicker Park",
    "website": "https://www.mirrachicago.com/",
    "lat": 41.9179598,
    "lon": -87.67737819999999,
    "program": "chase"
  },
  {
    "name": "Fioretta",
    "address": "318 N Sangamon St, Chicago, IL 60607, USA",
    "city": "Chicago",
    "cuisine": "Steakhouse",
    "neighborhood": "West Loop",
    "website": "https://www.fiorettasteak.com/",
    "lat": 41.8873453,
    "lon": -87.6511929,
    "program": "chase"
  },
  {
    "name": "Momotaro",
    "address": "820 W Lake St, Chicago, IL 60607, USA",
    "city": "Chicago",
    "cuisine": "Japanese",
    "neighborhood": "West Loop",
    "website": "https://www.momotarochicago.com/",
    "lat": 41.885886,
    "lon": -87.64845,
    "program": "chase"
  },
  {
    "name": "Daisies Chicago",
    "address": "2375 N Milwaukee Ave, Chicago, IL 60647, USA",
    "city": "Chicago",
    "cuisine": "American",
    "neighborhood": "Logan Square",
    "website": "https://www.daisieschicago.com/",
    "lat": 41.9244424,
    "lon": -87.69961479999999,
    "program": "chase"
  },
  {
    "name": "Boka",
    "address": "1729 N Halsted St, Chicago, IL 60614, USA",
    "city": "Chicago",
    "cuisine": "Contemporary American",
    "neighborhood": "Lincoln Park",
    "website": "http://www.bokachicago.com/",
    "lat": 41.913555099999996,
    "lon": -87.6480103,
    "program": "chase"
  },
  {
    "name": "avec West Loop",
    "address": "615 W Randolph St, Chicago, IL 60661, USA",
    "city": "Chicago",
    "cuisine": "Mediterranean",
    "neighborhood": "West Loop",
    "website": "http://www.avecrestaurant.com/",
    "lat": 41.8842861,
    "lon": -87.643401,
    "program": "chase"
  },
  {
    "name": "Hawksmoor Chicago",
    "address": "500 N La Salle Dr, Chicago, IL 60654, USA",
    "city": "Chicago",
    "cuisine": "Steakhouse",
    "neighborhood": "River North",
    "website": "https://thehawksmoor.com/us/chicago",
    "lat": 41.8909552,
    "lon": -87.63302039999999,
    "program": "chase"
  },
  {
    "name": "Brasero",
    "address": "1709 W Chicago Ave, Chicago, IL 60622, USA",
    "city": "Chicago",
    "cuisine": "Contemporary American",
    "neighborhood": "West Town",
    "website": "https://www.braserochicago.com/",
    "lat": 41.895705,
    "lon": -87.6702143,
    "program": "chase"
  },
  {
    "name": "avec River North",
    "address": "141 W Erie St, Chicago, IL 60654, USA",
    "city": "Chicago",
    "cuisine": "Mediterranean",
    "neighborhood": "River North",
    "website": "http://www.avecrestaurant.com/",
    "lat": 41.8938571,
    "lon": -87.6329428,
    "program": "chase"
  },
  {
    "name": "Chicago Cut Steakhouse",
    "address": "300 N La Salle Dr, Chicago, IL 60654, USA",
    "city": "Chicago",
    "cuisine": "Steakhouse",
    "neighborhood": "River North",
    "website": "http://www.chicagocutsteakhouse.com/",
    "lat": 41.8880993,
    "lon": -87.6327417,
    "program": "chase"
  },
  {
    "name": "Kumiko",
    "address": "630 W Lake St, Chicago, IL 60661, USA",
    "city": "Chicago",
    "cuisine": "Dining Bar",
    "neighborhood": "West Loop",
    "website": "http://barkumiko.com/",
    "lat": 41.8858561,
    "lon": -87.64409479999999,
    "program": "chase"
  },
  {
    "name": "Asador Bastian",
    "address": "214 W Erie St, Chicago, IL 60654, USA",
    "city": "Chicago",
    "cuisine": "Steakhouse",
    "neighborhood": "River North",
    "website": "http://asadorbastian.com/",
    "lat": 41.8940917,
    "lon": -87.6348275,
    "program": "chase"
  },
  {
    "name": "Thattu",
    "address": "2601 W Fletcher St, Chicago, IL 60618, USA",
    "city": "Chicago",
    "cuisine": "Indian",
    "neighborhood": "Avondale",
    "website": "http://thattu.com/",
    "lat": 41.938395799999995,
    "lon": -87.6931098,
    "program": "chase"
  },
  {
    "name": "The Publican",
    "address": "837 W Fulton Market, Chicago, IL 60607, USA",
    "city": "Chicago",
    "cuisine": "American",
    "neighborhood": "West Loop",
    "website": "http://thepublicanrestaurant.com/",
    "lat": 41.8866349,
    "lon": -87.6488498,
    "program": "chase"
  },
  {
    "name": "Anelya",
    "address": "3472 N Elston Ave, Chicago, IL 60618, USA",
    "city": "Chicago",
    "cuisine": "Ukrainian",
    "neighborhood": "Avondale",
    "website": "https://www.anelyarestaurant.com/menu",
    "lat": 41.9442056,
    "lon": -87.7056575,
    "program": "chase"
  },
  {
    "name": "Bronzeville Winery",
    "address": "4420 S Cottage Grove Ave, Chicago, IL 60653, USA",
    "city": "Chicago",
    "cuisine": "Contemporary American",
    "neighborhood": "Bronzeville",
    "website": "https://www.bronzevillewinery.com/",
    "lat": 41.8142125,
    "lon": -87.6069522,
    "program": "chase"
  },
  {
    "name": "Valhalla",
    "address": "2020 W Division St, Chicago, IL 60622, USA",
    "city": "Chicago",
    "cuisine": "Contemporary American",
    "neighborhood": "Bucktown / Wicker Park",
    "website": "http://www.valhallachicago.com/",
    "lat": 41.903483900000005,
    "lon": -87.6782037,
    "program": "chase"
  },
  {
    "name": "After",
    "address": "302 N Green St 3rd Floor, Chicago, IL 60607, USA",
    "city": "Chicago",
    "cuisine": "Cocktail Bar",
    "neighborhood": "West Loop",
    "website": "http://www.abarestaurants.com/",
    "lat": 41.887004999999995,
    "lon": -87.64885009999999,
    "program": "chase"
  },
  {
    "name": "Sepia",
    "address": "123 N Jefferson St, Chicago, IL 60661, USA",
    "city": "Chicago",
    "cuisine": "Contemporary American",
    "neighborhood": "West Loop",
    "website": "https://www.sepiachicago.com/",
    "lat": 41.8839596,
    "lon": -87.64257889999999,
    "program": "chase"
  },
  {
    "name": "Mariscos San Pedro",
    "address": "1227 W 18th St, Chicago, IL 60608, USA",
    "city": "Chicago",
    "cuisine": "Mexican",
    "neighborhood": "Pilsen",
    "website": "https://www.mariscossanpedro.com/",
    "lat": 41.8578324,
    "lon": -87.6575108,
    "program": "chase"
  },
  {
    "name": "Ever",
    "address": "1340 W Fulton St, Chicago, IL 60607, USA",
    "city": "Chicago",
    "cuisine": "American",
    "neighborhood": "West Loop",
    "website": "http://www.ever-restaurant.com/",
    "lat": 41.886931399999995,
    "lon": -87.6604084,
    "program": "chase"
  },
  {
    "name": "PERILLA steakhouse - Riverwalk",
    "address": "225 N Wabash Ave, Chicago, IL 60601, USA",
    "city": "Chicago",
    "cuisine": "Korean",
    "neighborhood": "Downtown / Loop",
    "website": "https://perillachicago.com/",
    "lat": 41.8866272,
    "lon": -87.6260811,
    "program": "chase"
  },
  {
    "name": "Moody Tongue Brewing Company",
    "address": "2515 S Wabash Ave, Chicago, IL 60616, USA",
    "city": "Chicago",
    "cuisine": "Brewery",
    "neighborhood": "South Loop",
    "website": "http://www.moodytongue.com/",
    "lat": 41.8469335,
    "lon": -87.6252206,
    "program": "chase"
  },
  {
    "name": "Cariño",
    "address": "4662 N Broadway, Chicago, IL 60640, USA",
    "city": "Chicago",
    "cuisine": "Latin American",
    "neighborhood": "Uptown",
    "website": "http://carinochicago.com/",
    "lat": 41.966924,
    "lon": -87.6587572,
    "program": "chase"
  },
  {
    "name": "Khmai",
    "address": "6580 N Sheridan Rd, Chicago, IL 60626, USA",
    "city": "Chicago",
    "cuisine": "Cambodian",
    "neighborhood": "North of Foster / Rogers Park",
    "website": "https://khmai-fine-dining.com/",
    "lat": 42.0023998,
    "lon": -87.6609823,
    "program": "chase"
  },
  {
    "name": "Mita's Restaurant",
    "address": "501 Race St, Cincinnati, OH 45202, USA",
    "city": "Cincinnati",
    "cuisine": "Tapas / Small Plates",
    "neighborhood": "Cincinnati",
    "website": "https://www.mitas.co/",
    "lat": 39.101118299999996,
    "lon": -84.5148646,
    "program": "chase"
  },
  {
    "name": "Five Kitchen and Bar",
    "address": "1324 Vine St, Cincinnati, OH 45202, USA",
    "city": "Cincinnati",
    "cuisine": "American",
    "neighborhood": "Over the Rhine",
    "website": "http://www.fiveonvine.com/",
    "lat": 39.1101289,
    "lon": -84.51505039999999,
    "program": "chase"
  },
  {
    "name": "Flour | Moreland Hills",
    "address": "34205 Chagrin Blvd, Moreland Hills, OH 44022, USA",
    "city": "Cleveland",
    "cuisine": "Italian",
    "neighborhood": "Moreland Hills",
    "website": "http://www.flourrestaurant.com/",
    "lat": 41.455110999999995,
    "lon": -81.443116,
    "program": "chase"
  },
  {
    "name": "Blue Point Grille",
    "address": "700 W St Clair Ave, Cleveland, OH 44113, USA",
    "city": "Cleveland",
    "cuisine": "Seafood",
    "neighborhood": "Downtown Cleveland",
    "website": "http://www.bluepointgrille.com/",
    "lat": 41.4996492,
    "lon": -81.69893600000002,
    "program": "chase"
  },
  {
    "name": "Edwins Restaurant",
    "address": "12383 Cedar Rd, Cleveland Heights, OH 44106, USA",
    "city": "Cleveland",
    "cuisine": "French",
    "neighborhood": "University Circle",
    "website": "https://edwinsrestaurant.org/",
    "lat": 41.5013436,
    "lon": -81.5952513,
    "program": "chase"
  },
  {
    "name": "DANTE",
    "address": "2247 Professor Ave suite c, Cleveland, OH 44113, USA",
    "city": "Cleveland",
    "cuisine": "American",
    "neighborhood": "Tremont",
    "website": "https://danteboccuzzi.com/dante-tremont/",
    "lat": 41.4816194,
    "lon": -81.6863606,
    "program": "chase"
  },
  {
    "name": "GINKO",
    "address": "2247 Professor Ave B, Cleveland, OH 44113, USA",
    "city": "Cleveland",
    "cuisine": "Sushi",
    "neighborhood": "Tremont",
    "website": "",
    "lat": 41.4815894,
    "lon": -81.68644119999999,
    "program": "chase"
  },
  {
    "name": "Butcher & Rose",
    "address": "155 E Broad St, Columbus, OH 43215, USA",
    "city": "Columbus",
    "cuisine": "Steakhouse",
    "neighborhood": "Columbus",
    "website": "https://butcherandrose.com/",
    "lat": 39.96234030000001,
    "lon": -82.9966195,
    "program": "chase"
  },
  {
    "name": "Cento – German Village",
    "address": "595 S 3rd St, Columbus, OH 43215, USA",
    "city": "Columbus",
    "cuisine": "Italian",
    "neighborhood": "German Village",
    "website": "https://centogermanvillage.com/",
    "lat": 39.9502525,
    "lon": -82.9957828,
    "program": "chase"
  },
  {
    "name": "Tucci's - Dublin",
    "address": "35 N High St, Dublin, OH 43017, USA",
    "city": "Columbus",
    "cuisine": "Steakhouse",
    "neighborhood": "Dublin",
    "website": "https://tuccisdublin.com/",
    "lat": 40.1002547,
    "lon": -83.11442760000001,
    "program": "chase"
  },
  {
    "name": "Del Mar – Easton",
    "address": "4089 The Strand E, Columbus, OH 43219, USA",
    "city": "Columbus",
    "cuisine": "Mediterranean",
    "neighborhood": "Easton",
    "website": "https://delmarmediterranean.com/locations-menus/columbus/",
    "lat": 40.0526009,
    "lon": -82.9152778,
    "program": "chase"
  },
  {
    "name": "Esh Modern Mediterranean - Fairfield",
    "address": "1401 Kings Hwy, Fairfield, CT 06824, USA",
    "city": "Connecticut",
    "cuisine": "Mediterranean",
    "neighborhood": "Fairfield",
    "website": "http://eshrestaurant.com/",
    "lat": 41.161454299999995,
    "lon": -73.2359132,
    "program": "chase"
  },
  {
    "name": "The North Fork Table & Inn",
    "address": "57225 Main Rd, Southold, NY 11971, USA",
    "city": "Connecticut",
    "cuisine": "Contemporary American",
    "neighborhood": "Southold",
    "website": "https://www.northforktableandinn.com/",
    "lat": 41.068110399999995,
    "lon": -72.4171602,
    "program": "chase"
  },
  {
    "name": "Mister Charles",
    "address": "3219 Knox St Suite 170, Dallas, TX 75205, USA",
    "city": "Dallas",
    "cuisine": "American",
    "neighborhood": "Knox / Henderson",
    "website": "https://themistercharles.com/?utm_source=gmb_site&utm_medium=organic",
    "lat": 32.8235287,
    "lon": -96.79026359999999,
    "program": "chase"
  },
  {
    "name": "José",
    "address": "4931 W Lovers Ln, Dallas, TX 75209, USA",
    "city": "Dallas",
    "cuisine": "Contemporary Mexican",
    "neighborhood": "Park Cities",
    "website": "http://www.jose.mx/",
    "lat": 32.8515498,
    "lon": -96.8255996,
    "program": "chase"
  },
  {
    "name": "Nick & Sam's Steakhouse",
    "address": "3008 Maple Ave, Dallas, TX 75201, USA",
    "city": "Dallas",
    "cuisine": "Steakhouse",
    "neighborhood": "Uptown",
    "website": "http://www.nick-sams.com/",
    "lat": 32.7984933,
    "lon": -96.8074407,
    "program": "chase"
  },
  {
    "name": "Sister",
    "address": "2808 Greenville Ave, Dallas, TX 75206, USA",
    "city": "Dallas",
    "cuisine": "Italian",
    "neighborhood": "Park Cities",
    "website": "http://www.sempresister.com/?utm_source=gmb_site&utm_medium=organic",
    "lat": 32.823357800000004,
    "lon": -96.77000509999999,
    "program": "chase"
  },
  {
    "name": "Town Hearth",
    "address": "1617 Market Center Blvd, Dallas, TX 75207, USA",
    "city": "Dallas",
    "cuisine": "Steakhouse",
    "neighborhood": "Design District",
    "website": "http://www.townhearth.com/",
    "lat": 32.7923379,
    "lon": -96.82214259999999,
    "program": "chase"
  },
  {
    "name": "Tei-An",
    "address": "1722 Routh St Suite110, Dallas, TX 75201, USA",
    "city": "Dallas",
    "cuisine": "Japanese",
    "neighborhood": "Arts District",
    "website": "http://www.tei-an.com/",
    "lat": 32.792057,
    "lon": -96.79550470000001,
    "program": "chase"
  },
  {
    "name": "El Carlos Elegante",
    "address": "1400 N Riverfront Blvd, Dallas, TX 75207, USA",
    "city": "Dallas",
    "cuisine": "Mexican",
    "neighborhood": "West Dallas",
    "website": "http://www.elcarloselegante.com/?utm_source=gmb_site&utm_medium=organic",
    "lat": 32.7901768,
    "lon": -96.8199921,
    "program": "chase"
  },
  {
    "name": "Tavernetta Denver",
    "address": "1889 16th St Mall, Denver, CO 80202, USA",
    "city": "Denver",
    "cuisine": "Italian",
    "neighborhood": "Downtown / LoDo",
    "website": "https://www.tavernettadenver.com/",
    "lat": 39.7530169,
    "lon": -105.0019674,
    "program": "chase"
  },
  {
    "name": "Alma Fonda Fina",
    "address": "2556 15th St, Denver, CO 80211, USA",
    "city": "Denver",
    "cuisine": "Contemporary Mexican",
    "neighborhood": "LoHi",
    "website": "https://www.almalohidenver.com/",
    "lat": 39.7580312,
    "lon": -105.0116729,
    "program": "chase"
  },
  {
    "name": "Rioja",
    "address": "1431 Larimer St, Denver, CO 80202, USA",
    "city": "Denver",
    "cuisine": "Mediterranean",
    "neighborhood": "Downtown / LoDo",
    "website": "http://www.riojadenver.com/",
    "lat": 39.7479417,
    "lon": -104.9994667,
    "program": "chase"
  },
  {
    "name": "KUMOYA",
    "address": "2400 W 32nd Ave, Denver, CO 80211, USA",
    "city": "Denver",
    "cuisine": "Japanese",
    "neighborhood": "LoHi",
    "website": "https://www.kumoyadenver.com/",
    "lat": 39.7619216,
    "lon": -105.01600990000001,
    "program": "chase"
  },
  {
    "name": "A5 Steakhouse",
    "address": "1600 15th St, Denver, CO 80202, USA",
    "city": "Denver",
    "cuisine": "Steakhouse",
    "neighborhood": "LoHi",
    "website": "https://www.a5denver.com/",
    "lat": 39.7502674,
    "lon": -105.001548,
    "program": "chase"
  },
  {
    "name": "Ash'Kara",
    "address": "2005 W 33rd Ave, Denver, CO 80211, USA",
    "city": "Denver",
    "cuisine": "Mediterranean",
    "neighborhood": "Highlands",
    "website": "https://www.ashkaradenver.com/",
    "lat": 39.7633856,
    "lon": -105.0115857,
    "program": "chase"
  },
  {
    "name": "BRUTØ",
    "address": "1801 Blake St, Denver, CO 80202, USA",
    "city": "Denver",
    "cuisine": "Contemporary American",
    "neighborhood": "Downtown / LoDo",
    "website": "http://brutodenver.com/",
    "lat": 39.752778299999996,
    "lon": -104.996991,
    "program": "chase"
  },
  {
    "name": "Sunday Vinyl",
    "address": "1803 16th St Mall, Denver, CO 80202, USA",
    "city": "Denver",
    "cuisine": "Wine Bar",
    "neighborhood": "Downtown / LoDo",
    "website": "https://www.sundayvinyl.com/",
    "lat": 39.75307,
    "lon": -105.0015306,
    "program": "chase"
  },
  {
    "name": "Cozobi Fonda Fina",
    "address": "909 Walnut St Suite 100, Boulder, CO 80302, USA",
    "city": "Denver",
    "cuisine": "Mexican",
    "neighborhood": "Boulder",
    "website": "https://cozobifondafina.com/",
    "lat": 40.016380399999996,
    "lon": -105.28325679999999,
    "program": "chase"
  },
  {
    "name": "Frasca Food and Wine",
    "address": "1738 Pearl St, Boulder, CO 80302, USA",
    "city": "Denver",
    "cuisine": "Italian",
    "neighborhood": "Boulder",
    "website": "https://www.frascafoodandwine.com/",
    "lat": 40.0192049,
    "lon": -105.2724745,
    "program": "chase"
  },
  {
    "name": "Oak & Reel",
    "address": "2921 E Grand Blvd, Detroit, MI 48202, USA",
    "city": "Detroit",
    "cuisine": "Italian",
    "neighborhood": "Detroit",
    "website": "https://www.oakandreel.com/",
    "lat": 42.3721935,
    "lon": -83.066938,
    "program": "chase"
  },
  {
    "name": "BARDA",
    "address": "4842 Grand River Ave, Detroit, MI 48208, USA",
    "city": "Detroit",
    "cuisine": "Steakhouse",
    "neighborhood": "Detroit",
    "website": "http://bardadetroit.com/",
    "lat": 42.348522599999995,
    "lon": -83.0879866,
    "program": "chase"
  },
  {
    "name": "Bar Pigalle",
    "address": "2915 John R St, Detroit, MI 48201, USA",
    "city": "Detroit",
    "cuisine": "Contemporary French / American",
    "neighborhood": "Detroit",
    "website": "https://www.barpigalle.com/",
    "lat": 42.3449494,
    "lon": -83.05399460000001,
    "program": "chase"
  },
  {
    "name": "Baobab Fare",
    "address": "6568 Woodward Ave Suite 100, Detroit, MI 48202, USA",
    "city": "Detroit",
    "cuisine": "East African",
    "neighborhood": "Detroit",
    "website": "http://www.baobabfare.com/",
    "lat": 42.3701364,
    "lon": -83.07296889999999,
    "program": "chase"
  },
  {
    "name": "Ladder 4 Wine Bar",
    "address": "3396 Vinewood St, Detroit, MI 48208, USA",
    "city": "Detroit",
    "cuisine": "Contemporary European",
    "neighborhood": "Detroit",
    "website": "https://www.ladder4winebar.com/",
    "lat": 42.3335705,
    "lon": -83.0980565,
    "program": "chase"
  },
  {
    "name": "CAMP",
    "address": "2 E Broad St, Greenville, SC 29601, USA",
    "city": "Greenville County",
    "cuisine": "American",
    "neighborhood": "Greenville",
    "website": "http://campgvl.com/",
    "lat": 34.8468004,
    "lon": -82.3999475,
    "program": "chase"
  },
  {
    "name": "Soby's",
    "address": "207 S Main St, Greenville, SC 29601, USA",
    "city": "Greenville County",
    "cuisine": "Contemporary American",
    "neighborhood": "Greenville",
    "website": "https://sobys.com/",
    "lat": 34.848177799999995,
    "lon": -82.3998694,
    "program": "chase"
  },
  {
    "name": "The Lazy Goat",
    "address": "170 Riverplace, Greenville, SC 29601, USA",
    "city": "Greenville County",
    "cuisine": "Mediterranean",
    "neighborhood": "Greenville",
    "website": "http://www.thelazygoat.com/",
    "lat": 34.846561099999995,
    "lon": -82.402574,
    "program": "chase"
  },
  {
    "name": "The Pig and the Lady",
    "address": "3650 Waialae Ave, Honolulu, HI 96816, USA",
    "city": "Hawaii",
    "cuisine": "Vietnamese",
    "neighborhood": "Kaimuki",
    "website": "http://thepigandthelady.com/",
    "lat": 21.282478899999997,
    "lon": -157.79793479999998,
    "program": "chase"
  },
  {
    "name": "Hau Tree",
    "address": "Lobby floor of the Kaimana Beach Hotel, 2863 Kalākaua Ave, Honolulu, HI 96815, USA",
    "city": "Hawaii",
    "cuisine": "Mediterranean",
    "neighborhood": "Waikiki",
    "website": "https://www.kaimana.com/dine/hau-tree/",
    "lat": 21.263361099999997,
    "lon": -157.821257,
    "program": "chase"
  },
  {
    "name": "MW Restaurant",
    "address": "888 Kapiolani Blvd, Commercial Unit, Suite 201, Honolulu, HI 96813, USA",
    "city": "Hawaii",
    "cuisine": "Seafood",
    "neighborhood": "Honolulu",
    "website": "http://mwrestaurant.com/",
    "lat": 21.299630099999998,
    "lon": -157.8526938,
    "program": "chase"
  },
  {
    "name": "Kaimuki Shokudo",
    "address": "1127 11th Ave, Honolulu, HI 96816, USA",
    "city": "Hawaii",
    "cuisine": "Japanese",
    "neighborhood": "Kaimuki",
    "website": "http://www.kaimukishokudo.com/",
    "lat": 21.2822993,
    "lon": -157.80032269999998,
    "program": "chase"
  },
  {
    "name": "Senia",
    "address": "75 N King St, Honolulu, HI 96817, USA",
    "city": "Hawaii",
    "cuisine": "Contemporary American",
    "neighborhood": "Downtown / Chinatown",
    "website": "http://www.restaurantsenia.com/",
    "lat": 21.3113523,
    "lon": -157.86362309999998,
    "program": "chase"
  },
  {
    "name": "Lineage Maui",
    "address": "3750 Wailea Alanui Dr, Wailea, HI 96753, USA",
    "city": "Hawaii",
    "cuisine": "Asian",
    "neighborhood": "Wailea",
    "website": "https://www.lineagemaui.com/",
    "lat": 20.6874085,
    "lon": -156.4398555,
    "program": "chase"
  },
  {
    "name": "Rosie Cannonball",
    "address": "1620 Westheimer Rd, Houston, TX 77006, USA",
    "city": "Houston",
    "cuisine": "Contemporary American",
    "neighborhood": "Montrose",
    "website": "https://www.rosiecannonball.com/",
    "lat": 29.7430583,
    "lon": -95.4003808,
    "program": "chase"
  },
  {
    "name": "BCN Taste & Tradition",
    "address": "4210 Roseland St, Houston, TX 77006, USA",
    "city": "Houston",
    "cuisine": "Spanish",
    "neighborhood": "Montrose",
    "website": "http://bcnhouston.com/",
    "lat": 29.7349267,
    "lon": -95.39015649999999,
    "program": "chase"
  },
  {
    "name": "Kiran's",
    "address": "2925 Richmond Ave. Suite 160, Houston, TX 77098, USA",
    "city": "Houston",
    "cuisine": "Indian",
    "neighborhood": "Upper Kirby / Shepherd Corridor",
    "website": "http://kiranshouston.com/",
    "lat": 29.7337915,
    "lon": -95.42240640000001,
    "program": "chase"
  },
  {
    "name": "Agnes and Sherman",
    "address": "250 W 19th St A, Houston, TX 77008, USA",
    "city": "Houston",
    "cuisine": "Asian",
    "neighborhood": "Heights / Washington",
    "website": "https://www.agnesandsherman.com/",
    "lat": 29.802722199999998,
    "lon": -95.40104439999999,
    "program": "chase"
  },
  {
    "name": "ChopnBlok",
    "address": "507 Westheimer Rd, Houston, TX 77006, USA",
    "city": "Houston",
    "cuisine": "African",
    "neighborhood": "Montrose",
    "website": "https://chopnblok.co/",
    "lat": 29.7442282,
    "lon": -95.387676,
    "program": "chase"
  },
  {
    "name": "Brasserie 19",
    "address": "1962 W Gray St, Houston, TX 77019, USA",
    "city": "Houston",
    "cuisine": "French",
    "neighborhood": "River Oaks",
    "website": "http://brasserie19.com/",
    "lat": 29.753420999999996,
    "lon": -95.407249,
    "program": "chase"
  },
  {
    "name": "Maximo",
    "address": "6119 Edloe St, West University Place, TX 77005, USA",
    "city": "Houston",
    "cuisine": "Mexican",
    "neighborhood": "W. University / Med Center",
    "website": "https://maximo-htx.com/",
    "lat": 29.716123300000003,
    "lon": -95.43359009999999,
    "program": "chase"
  },
  {
    "name": "Turner's Cut",
    "address": "811 Buffalo Pk Dr Suite 160, Houston, TX 77019, USA",
    "city": "Houston",
    "cuisine": "Steakhouse",
    "neighborhood": "Montrose",
    "website": "https://www.turnerscut.com/",
    "lat": 29.758062600000002,
    "lon": -95.4051712,
    "program": "chase"
  },
  {
    "name": "March",
    "address": "1624 Westheimer Rd, Houston, TX 77006, USA",
    "city": "Houston",
    "cuisine": "Mediterranean",
    "neighborhood": "Montrose",
    "website": "https://www.marchrestaurant.com/",
    "lat": 29.7431485,
    "lon": -95.4003814,
    "program": "chase"
  },
  {
    "name": "Októ",
    "address": "888 Westheimer Rd Suite 119, Houston, TX 77006, USA",
    "city": "Houston",
    "cuisine": "Mediterranean",
    "neighborhood": "Montrose",
    "website": "https://www.oktorestaurant.com/",
    "lat": 29.7450022,
    "lon": -95.3902626,
    "program": "chase"
  },
  {
    "name": "Lee's",
    "address": "5117 Kelvin Dr, Houston, TX 77005, USA",
    "city": "Houston",
    "cuisine": "Cocktail Bar",
    "neighborhood": "Southeast Houston",
    "website": "https://miltonandlees.com/",
    "lat": 29.719555500000002,
    "lon": -95.4163497,
    "program": "chase"
  },
  {
    "name": "Street To Kitchen",
    "address": "3401 Harrisburg Blvd Suite G, Houston, TX 77003, USA",
    "city": "Houston",
    "cuisine": "Thai",
    "neighborhood": "East End",
    "website": "http://www.streettokitchen.vip/",
    "lat": 29.7487095,
    "lon": -95.3408187,
    "program": "chase"
  },
  {
    "name": "Midtown Table",
    "address": "5016 Gate Pkwy #6, Jacksonville, FL 32256, USA",
    "city": "Jacksonville",
    "cuisine": "Contemporary Italian",
    "neighborhood": "Baymeadows",
    "website": "http://midtowntable.com/",
    "lat": 30.245593699999997,
    "lon": -81.53621600000001,
    "program": "chase"
  },
  {
    "name": "Matthew's Restaurant",
    "address": "2107 Hendricks Ave, Jacksonville, FL 32207, USA",
    "city": "Jacksonville",
    "cuisine": "Contemporary European",
    "neighborhood": "Jacksonville",
    "website": "http://www.matthewsrestaurant.com/",
    "lat": 30.3039563,
    "lon": -81.6522607,
    "program": "chase"
  },
  {
    "name": "Rue Saint-Marc",
    "address": "2103 San Marco Blvd, Jacksonville, FL 32207, USA",
    "city": "Jacksonville",
    "cuisine": "Contemporary European",
    "neighborhood": "Jacksonville",
    "website": "http://ruesaintmarc.com/",
    "lat": 30.303830499999997,
    "lon": -81.65268789999999,
    "program": "chase"
  },
  {
    "name": "Pierpont's at Union Station",
    "address": "30 W Pershing Rd, Kansas City, MO 64108, USA",
    "city": "Kansas City",
    "cuisine": "Steakhouse",
    "neighborhood": "Crossroads / Freight District / Boulevard",
    "website": "https://www.pierponts.com/",
    "lat": 39.0850273,
    "lon": -94.5849205,
    "program": "chase"
  },
  {
    "name": "Story",
    "address": "3931 W 69th Terrace, Prairie Village, KS 66208, USA",
    "city": "Kansas City",
    "cuisine": "Modern European",
    "neighborhood": "Prairie Village",
    "website": "http://www.storykc.com/",
    "lat": 39.002052,
    "lon": -94.6312511,
    "program": "chase"
  },
  {
    "name": "Room 39 - Midtown",
    "address": "1719 W 39th St, Kansas City, MO 64111, USA",
    "city": "Kansas City",
    "cuisine": "Farm-to-table",
    "neighborhood": "Kansas City",
    "website": "http://www.rm39.com/",
    "lat": 39.0571096,
    "lon": -94.6059101,
    "program": "chase"
  },
  {
    "name": "JJ's Restaurant",
    "address": "4810 Roanoke Pkwy, Kansas City, MO 64112, USA",
    "city": "Kansas City",
    "cuisine": "American",
    "neighborhood": "Plaza / Brookside",
    "website": "https://jjsrestaurantkc.com/",
    "lat": 39.0405106,
    "lon": -94.5976974,
    "program": "chase"
  },
  {
    "name": "Nobu - Caesars Palace Las Vegas",
    "address": "3570 Las Vegas Blvd S, Las Vegas, NV 89109, USA",
    "city": "Las Vegas",
    "cuisine": "Japanese",
    "neighborhood": "Caesars Palace",
    "website": "https://www.caesars.com/caesars-palace/restaurants/nobu?utm_campaign=gmb&utm_source=goolge&utm_medium=local&utm_term=CLV18&utm_content=restaurant&y_source=1_NDM2Njg3NC03MTUtbG9jYXRpb24ud2Vic2l0ZQ%3D%3D",
    "lat": 36.116848999999995,
    "lon": -115.17530989999999,
    "program": "chase"
  },
  {
    "name": "Hell's Kitchen - Caesars Palace Las Vegas",
    "address": "3570 Las Vegas Blvd S, Las Vegas, NV 89109, USA",
    "city": "Las Vegas",
    "cuisine": "American",
    "neighborhood": "Caesars Palace",
    "website": "https://www.caesars.com/caesars-palace/restaurants/gordon-ramsay-hells-kitchen?utm_campaign=gmb&utm_source=goolge&utm_medium=local&utm_term=CLV101&utm_content=restaurant&y_source=1_ODkwODg0NC03MTUtbG9jYXRpb24ud2Vic2l0ZQ%3D%3D",
    "lat": 36.1157296,
    "lon": -115.17323209999999,
    "program": "chase"
  },
  {
    "name": "Vanderpump à Paris",
    "address": "3655 S Las Vegas Blvd, Las Vegas, NV 89109, USA",
    "city": "Las Vegas",
    "cuisine": "French American",
    "neighborhood": "Paris Hotel and Casino",
    "website": "https://www.caesars.com/paris-las-vegas/restaurants/vanderpump-a-paris?utm_campaign=gmb&utm_source=goolge&utm_medium=local&utm_term=PLV64&utm_content=restaurant&y_source=1_MzQ5MjUzNDUtNzE1LWxvY2F0aW9uLndlYnNpdGU%3D",
    "lat": 36.112292599999996,
    "lon": -115.1707358,
    "program": "chase"
  },
  {
    "name": "Top of the World Steakhouse - The STRAT Hotel Casino & Tower",
    "address": "2000 Las Vegas Blvd S, Las Vegas, NV 89104, USA",
    "city": "Las Vegas",
    "cuisine": "Steakhouse",
    "neighborhood": "The STRAT Hotel & Casino",
    "website": "https://www.thestrat.com/restaurants/top-of-the-world?utm_source=gmb&utm_medium=yext",
    "lat": 36.1474451,
    "lon": -115.15568859999999,
    "program": "chase"
  },
  {
    "name": "Esther's Kitchen",
    "address": "1131 S Main St, Las Vegas, NV 89104, USA",
    "city": "Las Vegas",
    "cuisine": "Italian",
    "neighborhood": "Downtown",
    "website": "https://www.estherslv.com/",
    "lat": 36.1576619,
    "lon": -115.15338249999999,
    "program": "chase"
  },
  {
    "name": "Momofuku Las Vegas",
    "address": "Boulevard Tower, 3708 Las Vegas Blvd S Level 2, Las Vegas, NV 89109, USA",
    "city": "Las Vegas",
    "cuisine": "American",
    "neighborhood": "The Strip",
    "website": "https://cosmopolitanlasvegas.mgmresorts.com/en/restaurants/momofuku.html",
    "lat": 36.1101282,
    "lon": -115.17414029999999,
    "program": "chase"
  },
  {
    "name": "Delilah – NYE at Wynn Las Vegas",
    "address": "3131 Las Vegas Blvd S, Las Vegas, NV 89109, USA",
    "city": "Las Vegas",
    "cuisine": "American",
    "neighborhood": "The Strip",
    "website": "https://www.wynnlasvegas.com/dining/fine-dining/delilah",
    "lat": 36.1271069,
    "lon": -115.16483029999999,
    "program": "chase"
  },
  {
    "name": "Harlo Steakhouse & Bar",
    "address": "1720 Festival Plaza Dr, Las Vegas, NV 89135, USA",
    "city": "Las Vegas",
    "cuisine": "Steakhouse",
    "neighborhood": "Summerlin",
    "website": "https://www.harlosteak.com/",
    "lat": 36.152886099999996,
    "lon": -115.33316939999997,
    "program": "chase"
  },
  {
    "name": "La Strega",
    "address": "3555 S Town Center Dr Ste 105, Las Vegas, NV 89135, USA",
    "city": "Las Vegas",
    "cuisine": "Italian",
    "neighborhood": "Spring Valley",
    "website": "https://www.lastregalv.com/",
    "lat": 36.1248532,
    "lon": -115.32519669999999,
    "program": "chase"
  },
  {
    "name": "Dunsmoor",
    "address": "3501 Eagle Rock Blvd, Los Angeles, CA 90065, USA",
    "city": "Los Angeles",
    "cuisine": "American",
    "neighborhood": "Eagle Rock",
    "website": "https://www.dunsmoor.la/",
    "lat": 34.1159968,
    "lon": -118.2359552,
    "program": "chase"
  },
  {
    "name": "Gwen",
    "address": "6600 Sunset Blvd, Los Angeles, CA 90028, USA",
    "city": "Los Angeles",
    "cuisine": "Contemporary American",
    "neighborhood": "Hollywood",
    "website": "http://gwenla.com/",
    "lat": 34.097749,
    "lon": -118.33342800000001,
    "program": "chase"
  },
  {
    "name": "Camélia",
    "address": "1850 Industrial St, Los Angeles, CA 90021, USA",
    "city": "Los Angeles",
    "cuisine": "French / Japanese",
    "neighborhood": "Arts District",
    "website": "https://cameliadtla.com/",
    "lat": 34.035574,
    "lon": -118.2325904,
    "program": "chase"
  },
  {
    "name": "Loreto",
    "address": "1991 Blake Ave, Los Angeles, CA 90039, USA",
    "city": "Los Angeles",
    "cuisine": "Mexican",
    "neighborhood": "Atwater Village",
    "website": "http://loreto.la/",
    "lat": 34.1011188,
    "lon": -118.2438706,
    "program": "chase"
  },
  {
    "name": "Majordōmo",
    "address": "1725 Naud St, Los Angeles, CA 90012, USA",
    "city": "Los Angeles",
    "cuisine": "American",
    "neighborhood": "Downtown",
    "website": "http://www.majordomo.la/",
    "lat": 34.0690822,
    "lon": -118.2261672,
    "program": "chase"
  },
  {
    "name": "Meteora",
    "address": "6703 Melrose Ave, Los Angeles, CA 90038, USA",
    "city": "Los Angeles",
    "cuisine": "Californian",
    "neighborhood": "Hollywood",
    "website": "http://meteora.la/",
    "lat": 34.083708099999996,
    "lon": -118.3399396,
    "program": "chase"
  },
  {
    "name": "chi SPACCA",
    "address": "6610 Melrose Ave, Los Angeles, CA 90038, USA",
    "city": "Los Angeles",
    "cuisine": "Italian",
    "neighborhood": "Hollywood",
    "website": "http://www.chispacca.com/",
    "lat": 34.0832749,
    "lon": -118.3390866,
    "program": "chase"
  },
  {
    "name": "Ronan",
    "address": "7315 Melrose Ave, Los Angeles, CA 90046, USA",
    "city": "Los Angeles",
    "cuisine": "Pizzeria",
    "neighborhood": "West Hollywood",
    "website": "http://ronanla.com/",
    "lat": 34.0837054,
    "lon": -118.3492464,
    "program": "chase"
  },
  {
    "name": "Steak 48 - Beverly Hills",
    "address": "9680 Wilshire Blvd, Beverly Hills, CA 90212, USA",
    "city": "Los Angeles",
    "cuisine": "Steakhouse",
    "neighborhood": "Beverly Hills",
    "website": "https://www.steak48.com/steakhouses/beverly-hills/?utm_source=google&utm_medium=organic&utm_campaign=gmb",
    "lat": 34.0667408,
    "lon": -118.4055074,
    "program": "chase"
  },
  {
    "name": "Delilah - Los Angeles",
    "address": "7969 Santa Monica Blvd, West Hollywood, CA 90046, USA",
    "city": "Los Angeles",
    "cuisine": "American",
    "neighborhood": "West Hollywood",
    "website": "https://www.delilahrestaurants.com/location/los-angeles",
    "lat": 34.0910654,
    "lon": -118.36358169999998,
    "program": "chase"
  },
  {
    "name": "Super Peach",
    "address": "10250 Santa Monica Blvd, Los Angeles, CA 90067, USA",
    "city": "Los Angeles",
    "cuisine": "Asian",
    "neighborhood": "Century City",
    "website": "https://www.momofuku.com/restaurants/super-peach",
    "lat": 34.059054599999996,
    "lon": -118.42014959999997,
    "program": "chase"
  },
  {
    "name": "The Nice Guy",
    "address": "401 N La Cienega Blvd, Los Angeles, CA 90048, USA",
    "city": "Los Angeles",
    "cuisine": "Italian",
    "neighborhood": "West Hollywood",
    "website": "http://www.theniceguyla.com/",
    "lat": 34.078721200000004,
    "lon": -118.3768326,
    "program": "chase"
  },
  {
    "name": "Somni",
    "address": "9045 Nemo St, West Hollywood, CA 90069, USA",
    "city": "Los Angeles",
    "cuisine": "Spanish",
    "neighborhood": "West Hollywood",
    "website": "http://www.somnirestaurant.com/",
    "lat": 34.0825405,
    "lon": -118.3884,
    "program": "chase"
  },
  {
    "name": "La Dolce Vita",
    "address": "9785 S Santa Monica Blvd, Beverly Hills, CA 90210, USA",
    "city": "Los Angeles",
    "cuisine": "Italian",
    "neighborhood": "Beverly Hills",
    "website": "http://ladolcevitabeverlyhills.com/",
    "lat": 34.067482999999996,
    "lon": -118.4091267,
    "program": "chase"
  },
  {
    "name": "Vespertine",
    "address": "3599 Hayden Ave, Culver City, CA 90232, USA",
    "city": "Los Angeles",
    "cuisine": "Californian",
    "neighborhood": "Culver City",
    "website": "https://vespertine.la/",
    "lat": 34.0241968,
    "lon": -118.3818786,
    "program": "chase"
  },
  {
    "name": "Gjelina",
    "address": "1429 Abbot Kinney Blvd, Venice, CA 90291, USA",
    "city": "Los Angeles",
    "cuisine": "American",
    "neighborhood": "Venice",
    "website": "http://www.gjelina.com/",
    "lat": 33.990497,
    "lon": -118.4649651,
    "program": "chase"
  },
  {
    "name": "Anajak Thai Cuisine",
    "address": "14704 Ventura Blvd, Sherman Oaks, CA 91403, USA",
    "city": "Los Angeles",
    "cuisine": "Thai",
    "neighborhood": "Sherman Oaks",
    "website": "http://www.anajakthai.com/",
    "lat": 34.1515121,
    "lon": -118.4533788,
    "program": "chase"
  },
  {
    "name": "Petit Trois Le Valley",
    "address": "13705 Ventura Blvd, Sherman Oaks, CA 91423, USA",
    "city": "Los Angeles",
    "cuisine": "French",
    "neighborhood": "Sherman Oaks",
    "website": "http://valley.petittrois.com/",
    "lat": 34.1483,
    "lon": -118.43149999999999,
    "program": "chase"
  },
  {
    "name": "Harriet's",
    "address": "8490 Sunset Blvd, West Hollywood, CA 90069, USA",
    "city": "Los Angeles",
    "cuisine": "Cocktail Bar",
    "neighborhood": "West Hollywood",
    "website": "https://www.1hotels.com/west-hollywood/taste/harriets-rooftop?utm_source=google-gbp&utm_medium=organic&utm_campaign=gbp",
    "lat": 34.0941714,
    "lon": -118.37561339999999,
    "program": "chase"
  },
  {
    "name": "Amiga Amore",
    "address": "5668 York Blvd, Los Angeles, CA 90042, USA",
    "city": "Los Angeles",
    "cuisine": "Mexican",
    "neighborhood": "Highland Park",
    "website": "http://amigaamorela.com/",
    "lat": 34.1187981,
    "lon": -118.19462519999999,
    "program": "chase"
  },
  {
    "name": "Xuntos",
    "address": "516 Santa Monica Blvd, Santa Monica, CA 90401, USA",
    "city": "Los Angeles",
    "cuisine": "Tapas / Small Plates",
    "neighborhood": "Santa Monica",
    "website": "http://www.barxuntos.com/",
    "lat": 34.0174391,
    "lon": -118.4937028,
    "program": "chase"
  },
  {
    "name": "pasjoli",
    "address": "2732 Main St, Santa Monica, CA 90405, USA",
    "city": "Los Angeles",
    "cuisine": "French",
    "neighborhood": "Santa Monica",
    "website": "http://www.pasjoli.com/",
    "lat": 34.0001931,
    "lon": -118.4820912,
    "program": "chase"
  },
  {
    "name": "Melisse",
    "address": "1104 Wilshire Blvd, Santa Monica, CA 90401, USA",
    "city": "Los Angeles",
    "cuisine": "Californian",
    "neighborhood": "Santa Monica",
    "website": "http://citrinandmelisse.com/",
    "lat": 34.0245221,
    "lon": -118.49135629999999,
    "program": "chase"
  },
  {
    "name": "REGARDS",
    "address": "547 Congress St, Portland, ME 04101, USA",
    "city": "Maine",
    "cuisine": "Seafood",
    "neighborhood": "Portland",
    "website": "http://www.regardsmaine.com/",
    "lat": 43.655633099999996,
    "lon": -70.26176439999999,
    "program": "chase"
  },
  {
    "name": "Benny's",
    "address": "545 Congress St, Portland, ME 04101, USA",
    "city": "Maine",
    "cuisine": "Italian",
    "neighborhood": "Portland",
    "website": "https://www.bennysmaine.com/",
    "lat": 43.6556287,
    "lon": -70.2617011,
    "program": "chase"
  },
  {
    "name": "Mr. Tuna",
    "address": "83 Middle St, Portland, ME 04101, USA",
    "city": "Maine",
    "cuisine": "Sushi",
    "neighborhood": "Portland",
    "website": "http://www.mrtunamaine.com/",
    "lat": 43.6595831,
    "lon": -70.25152369999999,
    "program": "chase"
  },
  {
    "name": "DOYA",
    "address": "347 NW 24th St, Miami, FL 33127, USA",
    "city": "Miami",
    "cuisine": "Mediterranean",
    "neighborhood": "Wynwood",
    "website": "https://www.doyarestaurant.com/",
    "lat": 25.800235999999998,
    "lon": -80.201449,
    "program": "chase"
  },
  {
    "name": "Nami Nori - Design District",
    "address": "156 NE 41st St, Miami, FL 33137, USA",
    "city": "Miami",
    "cuisine": "Japanese",
    "neighborhood": "Design District",
    "website": "http://naminori.us/",
    "lat": 25.8139927,
    "lon": -80.1921594,
    "program": "chase"
  },
  {
    "name": "L'Atelier de Joël Robuchon - Miami",
    "address": "151 NE 41st St, Miami, FL 33137, USA",
    "city": "Miami",
    "cuisine": "French",
    "neighborhood": "Design District",
    "website": "https://latelier-miami.com/",
    "lat": 25.8146854,
    "lon": -80.19193539999999,
    "program": "chase"
  },
  {
    "name": "Delilah - Miami",
    "address": "301 Brickell Key Dr, Miami, FL 33131, USA",
    "city": "Miami",
    "cuisine": "American",
    "neighborhood": "Brickell",
    "website": "https://www.delilahrestaurants.com/",
    "lat": 25.765367599999998,
    "lon": -80.1886586,
    "program": "chase"
  },
  {
    "name": "Luca Osteria",
    "address": "116 Giralda Ave, Coral Gables, FL 33134, USA",
    "city": "Miami",
    "cuisine": "Italian",
    "neighborhood": "Coral Gables",
    "website": "http://www.lucamiami.com/",
    "lat": 25.7512048,
    "lon": -80.2572007,
    "program": "chase"
  },
  {
    "name": "Eating House",
    "address": "128 Giralda Ave, Coral Gables, FL 33134, USA",
    "city": "Miami",
    "cuisine": "American",
    "neighborhood": "Coral Gables",
    "website": "http://www.eatinghousemiami.com/",
    "lat": 25.7512111,
    "lon": -80.2574181,
    "program": "chase"
  },
  {
    "name": "Los Félix Miami",
    "address": "3413 Main Hwy, Miami, FL 33133, USA",
    "city": "Miami",
    "cuisine": "Mexican",
    "neighborhood": "Coconut Grove",
    "website": "http://losfelixmiami.com/",
    "lat": 25.727588299999997,
    "lon": -80.2425035,
    "program": "chase"
  },
  {
    "name": "Blue Collar",
    "address": "6789 Biscayne Blvd, Miami, FL 33138, USA",
    "city": "Miami",
    "cuisine": "Contemporary American",
    "neighborhood": "MiMo / Upper East Side",
    "website": "http://bluecollarmiami.com/",
    "lat": 25.837646799999998,
    "lon": -80.18406279999999,
    "program": "chase"
  },
  {
    "name": "Zitz Sum",
    "address": "396 Alhambra Cir Suite 155, Coral Gables, FL 33134, USA",
    "city": "Miami",
    "cuisine": "Japanese Speciality",
    "neighborhood": "Coral Gables",
    "website": "http://www.zitzsum.com/",
    "lat": 25.751446299999998,
    "lon": -80.262316,
    "program": "chase"
  },
  {
    "name": "Ariete",
    "address": "3540 Main Hwy, Coconut Grove, FL 33133, USA",
    "city": "Miami",
    "cuisine": "Contemporary American",
    "neighborhood": "Coconut Grove",
    "website": "https://arietecoconutgrove.com/",
    "lat": 25.7252433,
    "lon": -80.2450485,
    "program": "chase"
  },
  {
    "name": "Krüs Kitchen",
    "address": "3413 Main Hwy, Miami, FL 33133, USA",
    "city": "Miami",
    "cuisine": "Contemporary American",
    "neighborhood": "Coconut Grove",
    "website": "http://www.kruskitchen.com/",
    "lat": 25.7276055,
    "lon": -80.2425669,
    "program": "chase"
  },
  {
    "name": "Phuc Yea",
    "address": "7100 Biscayne Blvd, Miami, FL 33138, USA",
    "city": "Miami",
    "cuisine": "Asian",
    "neighborhood": "MiMo / Upper East Side",
    "website": "https://www.phucyea.com/",
    "lat": 25.8404512,
    "lon": -80.1846044,
    "program": "chase"
  },
  {
    "name": "Stubborn Seed Miami Beach",
    "address": "101 Washington Ave, Miami Beach, FL 33139, USA",
    "city": "Miami",
    "cuisine": "American",
    "neighborhood": "South Beach",
    "website": "https://www.stubbornseed.com/menu",
    "lat": 25.7701757,
    "lon": -80.1348768,
    "program": "chase"
  },
  {
    "name": "Ghee - Downtown Dadeland",
    "address": "8965 SW 72nd Pl, Kendall, FL 33156, USA",
    "city": "Miami",
    "cuisine": "Indian",
    "neighborhood": "Kendall",
    "website": "https://gheemiami.com/",
    "lat": 25.6871755,
    "lon": -80.3127732,
    "program": "chase"
  },
  {
    "name": "The Den",
    "address": "Inside Azabu, 161 Ocean Dr, Miami Beach, FL 33139, USA",
    "city": "Miami",
    "cuisine": "Sushi",
    "neighborhood": "South Beach",
    "website": "http://theden.miami.azabuglobal.com/",
    "lat": 25.7704335,
    "lon": -80.13228149999999,
    "program": "chase"
  },
  {
    "name": "Taki Omakase - Delray",
    "address": "632 E Atlantic Ave, Delray Beach, FL 33483, USA",
    "city": "Miami",
    "cuisine": "Sushi",
    "neighborhood": "Delray Beach",
    "website": "https://takiomakase.com/delray/?utm_source=GBP&utm_medium=organic-traffic",
    "lat": 26.461474,
    "lon": -80.06643799999999,
    "program": "chase"
  },
  {
    "name": "Stage Kitchen & Bar - Boca",
    "address": "5377 Town Center Rd suite 200, Boca Raton, FL 33486, USA",
    "city": "Miami",
    "cuisine": "American",
    "neighborhood": "Boca Raton",
    "website": "https://www.stagekitchenandbar.com/",
    "lat": 26.364174199999997,
    "lon": -80.1285243,
    "program": "chase"
  },
  {
    "name": "DanDan Milwaukee",
    "address": "360 E Erie St, Milwaukee, WI 53202, USA",
    "city": "Milwaukee",
    "cuisine": "Chinese",
    "neighborhood": "Milwaukee",
    "website": "http://dandanmke.com/",
    "lat": 43.030034199999996,
    "lon": -87.9053339,
    "program": "chase"
  },
  {
    "name": "EsterEv",
    "address": "2165 S Kinnickinnic Ave, Milwaukee, WI 53207, USA",
    "city": "Milwaukee",
    "cuisine": "Contemporary American",
    "neighborhood": "Milwaukee",
    "website": "http://www.esterev.com/",
    "lat": 43.0050978,
    "lon": -87.90629779999999,
    "program": "chase"
  },
  {
    "name": "Bavette La Boucherie",
    "address": "217 N Broadway, Milwaukee, WI 53202, USA",
    "city": "Milwaukee",
    "cuisine": "Farm-to-table",
    "neighborhood": "Milwaukee",
    "website": "http://www.bavettelaboucherie.com/",
    "lat": 43.0331463,
    "lon": -87.90738789999999,
    "program": "chase"
  },
  {
    "name": "Manny's Steakhouse",
    "address": "825 S Marquette Ave, Minneapolis, MN 55402, USA",
    "city": "Minneapolis",
    "cuisine": "Steak",
    "neighborhood": "Downtown / North Loop",
    "website": "https://mannyssteakhouse.com/",
    "lat": 44.9743953,
    "lon": -93.2720011,
    "program": "chase"
  },
  {
    "name": "P.S. Steak",
    "address": "510 Groveland Ave, Minneapolis, MN 55403, USA",
    "city": "Minneapolis",
    "cuisine": "Steakhouse",
    "neighborhood": "Downtown / Mill District",
    "website": "https://www.psmpls.com/?utm_source=2060digital&utm_medium=localseo&utm_campaign=gbp",
    "lat": 44.9672061,
    "lon": -93.2873041,
    "program": "chase"
  },
  {
    "name": "Baldamar",
    "address": "1642 County Road B2 W, Roseville, MN 55113, USA",
    "city": "Minneapolis",
    "cuisine": "Steak",
    "neighborhood": "Roseville",
    "website": "https://www.baldamar.com/",
    "lat": 45.0141515,
    "lon": -93.1692147,
    "program": "chase"
  },
  {
    "name": "Blackbird Modern Asian - Naples",
    "address": "1500 5th Ave S, Naples, FL 34102, USA",
    "city": "Naples",
    "cuisine": "Asian",
    "neighborhood": "Naples",
    "website": "https://blackbirdmodernasian.com/",
    "lat": 26.138794599999997,
    "lon": -81.78545729999999,
    "program": "chase"
  },
  {
    "name": "Tigress Rooftop Restaurant & Bar",
    "address": "12155 Tamiami Trl N, Naples, FL 34110, USA",
    "city": "Naples",
    "cuisine": "Cantonese",
    "neighborhood": "Naples Park",
    "website": "https://www.perryhotelnaples.com/naples-fl-hotel-dining",
    "lat": 26.280635999999998,
    "lon": -81.80315750000001,
    "program": "chase"
  },
  {
    "name": "Ocean Prime - Naples",
    "address": "699 5th Ave S, Naples, FL 34102, USA",
    "city": "Naples",
    "cuisine": "Seafood",
    "neighborhood": "Naples",
    "website": "https://www.ocean-prime.com/locations-menus/naples",
    "lat": 26.1416953,
    "lon": -81.7978688,
    "program": "chase"
  },
  {
    "name": "Oise Ristorante - Fort Myers",
    "address": "2262 First St, Fort Myers, FL 33901, USA",
    "city": "Naples",
    "cuisine": "Italian",
    "neighborhood": "Fort Myers",
    "website": "https://oiseristorante.com/",
    "lat": 26.6445811,
    "lon": -81.8691596,
    "program": "chase"
  },
  {
    "name": "Pelato - Nashville",
    "address": "1300 3rd Ave N, Nashville, TN 37208, USA",
    "city": "Nashville",
    "cuisine": "Italian",
    "neighborhood": "Germantown",
    "website": "http://pelatorestaurant.com/",
    "lat": 36.1780271,
    "lon": -86.786299,
    "program": "chase"
  },
  {
    "name": "Locust Nashville",
    "address": "2305 12th Ave S, Nashville, TN 37204, USA",
    "city": "Nashville",
    "cuisine": "Seafood",
    "neighborhood": "Belmont / Hillsboro",
    "website": "http://locustnashville.com/",
    "lat": 36.1273778,
    "lon": -86.7893698,
    "program": "chase"
  },
  {
    "name": "Yolan",
    "address": "403 4th Ave S, Nashville, TN 37201, USA",
    "city": "Nashville",
    "cuisine": "Italian",
    "neighborhood": "Downtown / Sobro",
    "website": "https://www.marriott.com/en-us/hotels/bnalj-the-joseph-a-luxury-collection-hotel-nashville/dining/?scid=feed67b0-9a2f-4de1-8df6-114544116108",
    "lat": 36.1567612,
    "lon": -86.7745959,
    "program": "chase"
  },
  {
    "name": "Bad Idea",
    "address": "1021 Russell St #101, Nashville, TN 37206, USA",
    "city": "Nashville",
    "cuisine": "Wine Bar",
    "neighborhood": "East Nashville",
    "website": "https://www.badideanashville.com/?utm_source=organic&utm_medium=gmb",
    "lat": 36.1758733,
    "lon": -86.75038579999999,
    "program": "chase"
  },
  {
    "name": "Bastion",
    "address": "434 Houston St STE 110, Nashville, TN 37203, USA",
    "city": "Nashville",
    "cuisine": "Contemporary American",
    "neighborhood": "South Nashville",
    "website": "http://www.bastionnashville.com/",
    "lat": 36.142924199999996,
    "lon": -86.7665652,
    "program": "chase"
  },
  {
    "name": "Henrietta Red",
    "address": "1200 4th Ave N, Nashville, TN 37208, USA",
    "city": "Nashville",
    "cuisine": "American",
    "neighborhood": "Germantown",
    "website": "http://www.henriettared.com/",
    "lat": 36.1759616,
    "lon": -86.7867371,
    "program": "chase"
  },
  {
    "name": "International Market - Nashville",
    "address": "2013 Belmont Blvd, Nashville, TN 37212, USA",
    "city": "Nashville",
    "cuisine": "Thai",
    "neighborhood": "Belmont / Hillsboro",
    "website": "http://www.im2nashville.com/",
    "lat": 36.131760799999995,
    "lon": -86.7956859,
    "program": "chase"
  },
  {
    "name": "Hawksmoor NYC",
    "address": "109 E 22nd St, New York, NY 10010, USA",
    "city": "New Jersey",
    "cuisine": "American",
    "neighborhood": "Gramercy Park",
    "website": "https://hawksmoornyc.com/?utm_source=google&utm_medium=organic&utm_campaign=gbp",
    "lat": 40.739535599999996,
    "lon": -73.9863884,
    "program": "chase"
  },
  {
    "name": "Felina Steak- Jersey City",
    "address": "2 Chapel Ave Unit 2, Jersey City, NJ 07305, USA",
    "city": "New Jersey",
    "cuisine": "Italian",
    "neighborhood": "Jersey City",
    "website": "http://bylandmark.com/felina-steak-jersey-city/",
    "lat": 40.685427499999996,
    "lon": -74.0706311,
    "program": "chase"
  },
  {
    "name": "SAPPE",
    "address": "240 W 14th St, New York, NY 10011, USA",
    "city": "New Jersey",
    "cuisine": "Thai",
    "neighborhood": "Greenwich Village",
    "website": "http://sappeisan.com/",
    "lat": 40.739140299999995,
    "lon": -74.0018035,
    "program": "chase"
  },
  {
    "name": "Gjelina - New York",
    "address": "45 Bond St, New York, NY 10012, USA",
    "city": "New Jersey",
    "cuisine": "Mediterranean",
    "neighborhood": "East Village",
    "website": "https://gjelina.com/ny/",
    "lat": 40.7258569,
    "lon": -73.99308060000001,
    "program": "chase"
  },
  {
    "name": "Sailor",
    "address": "228 DeKalb Ave, Brooklyn, NY 11205, USA",
    "city": "New Jersey",
    "cuisine": "Bistro",
    "neighborhood": "Fort Greene",
    "website": "https://www.sailor.nyc/",
    "lat": 40.6893831,
    "lon": -73.9703111,
    "program": "chase"
  },
  {
    "name": "Strange Delight",
    "address": "63 Lafayette Ave, Brooklyn, NY 11217, USA",
    "city": "New Jersey",
    "cuisine": "Oyster Bar",
    "neighborhood": "Fort Greene",
    "website": "https://www.strangedelight.nyc/",
    "lat": 40.6873624,
    "lon": -73.9760048,
    "program": "chase"
  },
  {
    "name": "Estela",
    "address": "47 E Houston St 1st floor, New York, NY 10012, USA",
    "city": "New Jersey",
    "cuisine": "Contemporary American",
    "neighborhood": "NoHo",
    "website": "http://estelanyc.com/",
    "lat": 40.724641299999995,
    "lon": -73.994739,
    "program": "chase"
  },
  {
    "name": "Momofuku Noodle Bar - East Village",
    "address": "171 1st Ave, New York, NY 10003, USA",
    "city": "New Jersey",
    "cuisine": "Asian",
    "neighborhood": "East Village",
    "website": "https://momofukunoodlebar.com/",
    "lat": 40.729208299999996,
    "lon": -73.98441500000001,
    "program": "chase"
  },
  {
    "name": "Altro Paradiso",
    "address": "234 Spring St, New York, NY 10013, USA",
    "city": "New Jersey",
    "cuisine": "Italian",
    "neighborhood": "SoHo",
    "website": "http://www.altroparadiso.com/",
    "lat": 40.7254266,
    "lon": -74.0046926,
    "program": "chase"
  },
  {
    "name": "Meximodo - Jersey City",
    "address": "25 Christopher Columbus Dr, Jersey City, NJ 07302, USA",
    "city": "New Jersey",
    "cuisine": "Mexican",
    "neighborhood": "Jersey City",
    "website": "https://meximodo.com/",
    "lat": 40.717745099999995,
    "lon": -74.0383153,
    "program": "chase"
  },
  {
    "name": "Casa Mono",
    "address": "52 Irving Pl, New York, NY 10003, USA",
    "city": "New Jersey",
    "cuisine": "Spanish",
    "neighborhood": "Union Square",
    "website": "http://www.casamononyc.com/",
    "lat": 40.7358936,
    "lon": -73.9871361,
    "program": "chase"
  },
  {
    "name": "Scarr's Pizza",
    "address": "35 Orchard St, New York, NY 10002, USA",
    "city": "New Jersey",
    "cuisine": "Pizzeria",
    "neighborhood": "Chinatown",
    "website": "http://www.scarrspizza.com/",
    "lat": 40.7157238,
    "lon": -73.99161149999999,
    "program": "chase"
  },
  {
    "name": "Phoenix Palace",
    "address": "85 Bowery, New York, NY 10002, USA",
    "city": "New Jersey",
    "cuisine": "Chinese",
    "neighborhood": "Chinatown",
    "website": "http://phoenixpalaceny.com/",
    "lat": 40.71682,
    "lon": -73.99527909999999,
    "program": "chase"
  },
  {
    "name": "Momofuku Noodle Bar - Uptown",
    "address": "10 Columbus Cir, New York, NY 10019, USA",
    "city": "New Jersey",
    "cuisine": "Asian",
    "neighborhood": "Midtown",
    "website": "https://momofukunoodlebar.com/",
    "lat": 40.7680157,
    "lon": -73.9829136,
    "program": "chase"
  },
  {
    "name": "Sunn's",
    "address": "139 Division St, New York, NY 10002, USA",
    "city": "New Jersey",
    "cuisine": "Korean",
    "neighborhood": "Chinatown",
    "website": "https://sunnsnyc.com/",
    "lat": 40.714377,
    "lon": -73.9909737,
    "program": "chase"
  },
  {
    "name": "Una Pizza Napoletana",
    "address": "175 Orchard St, New York, NY 10002, USA",
    "city": "New Jersey",
    "cuisine": "Italian",
    "neighborhood": "Lower East Side",
    "website": "https://unapizza.com/",
    "lat": 40.7217573,
    "lon": -73.9886214,
    "program": "chase"
  },
  {
    "name": "Kabawa",
    "address": "8 Extra Pl, New York, NY 10003, USA",
    "city": "New Jersey",
    "cuisine": "Caribbean",
    "neighborhood": "East Village",
    "website": "https://www.momofuku.com/restaurants/kabawa",
    "lat": 40.7248683,
    "lon": -73.9914685,
    "program": "chase"
  },
  {
    "name": "Potluck Club",
    "address": "133 Chrystie St, New York, NY 10002, USA",
    "city": "New Jersey",
    "cuisine": "Chinese",
    "neighborhood": "Chinatown",
    "website": "https://thepotluckclubny.com/",
    "lat": 40.719601999999995,
    "lon": -73.9935919,
    "program": "chase"
  },
  {
    "name": "l'abeille",
    "address": "412 Greenwich St, New York, NY 10013, USA",
    "city": "New Jersey",
    "cuisine": "French",
    "neighborhood": "TriBeCa",
    "website": "http://www.labeille.nyc/",
    "lat": 40.7220453,
    "lon": -74.0099342,
    "program": "chase"
  },
  {
    "name": "Roscioli - The Roman Feast",
    "address": "43 MacDougal St, New York, NY 10012, USA",
    "city": "New Jersey",
    "cuisine": "Italian",
    "neighborhood": "Greenwich Village",
    "website": "https://rosciolinyc.com/",
    "lat": 40.7277451,
    "lon": -74.00258389999999,
    "program": "chase"
  },
  {
    "name": "Muku",
    "address": "412 Greenwich St Penthouse B, New York, NY 10013, USA",
    "city": "New Jersey",
    "cuisine": "Japanese",
    "neighborhood": "TriBeCa",
    "website": "https://www.restaurantmuku.nyc/",
    "lat": 40.7218848,
    "lon": -74.0099346,
    "program": "chase"
  },
  {
    "name": "Maddy Rose at Liberty House",
    "address": "76 Audrey Zapp Dr Floor 1, Jersey City, NJ 07305, USA",
    "city": "New Jersey",
    "cuisine": "Contemporary American",
    "neighborhood": "Jersey City",
    "website": "https://libertyhousejc.com/",
    "lat": 40.7092052,
    "lon": -74.0399829,
    "program": "chase"
  },
  {
    "name": "Razza - Jersey City",
    "address": "275 Grove St, Jersey City, NJ 07302, USA",
    "city": "New Jersey",
    "cuisine": "Pizzeria",
    "neighborhood": "Jersey City",
    "website": "http://razzanj.com/",
    "lat": 40.7177776,
    "lon": -74.0442612,
    "program": "chase"
  },
  {
    "name": "Parcelle Chinatown",
    "address": "135 Division St, New York, NY 10002, USA",
    "city": "New Jersey",
    "cuisine": "Bar / Lounge / Bottle Service",
    "neighborhood": "Chinatown",
    "website": "http://www.parcellewine.com/",
    "lat": 40.714380999999996,
    "lon": -73.9911544,
    "program": "chase"
  },
  {
    "name": "Fairfax",
    "address": "234 W 4th St, New York, NY 10014, USA",
    "city": "New Jersey",
    "cuisine": "American",
    "neighborhood": "Greenwich Village",
    "website": "http://www.fairfax.nyc/",
    "lat": 40.734351,
    "lon": -74.0031358,
    "program": "chase"
  },
  {
    "name": "Red Hook Tavern",
    "address": "329 Van Brunt St, Brooklyn, NY 11231, USA",
    "city": "New Jersey",
    "cuisine": "American",
    "neighborhood": "Red Hook",
    "website": "http://www.redhooktavern.com/",
    "lat": 40.677860599999995,
    "lon": -74.0120649,
    "program": "chase"
  },
  {
    "name": "Tolo",
    "address": "28 Canal St, New York, NY 10002, USA",
    "city": "New Jersey",
    "cuisine": "Chinese",
    "neighborhood": "Lower East Side",
    "website": "https://tolonyc.com/",
    "lat": 40.7143377,
    "lon": -73.99050989999999,
    "program": "chase"
  },
  {
    "name": "Manhatta",
    "address": "28 Liberty St 60th floor, New York, NY 10005, USA",
    "city": "New Jersey",
    "cuisine": "American",
    "neighborhood": "Financial District",
    "website": "https://www.manhattarestaurant.com/",
    "lat": 40.707997399999996,
    "lon": -74.00888259999999,
    "program": "chase"
  },
  {
    "name": "Demo",
    "address": "34 Carmine St, New York, NY 10014, USA",
    "city": "New Jersey",
    "cuisine": "European",
    "neighborhood": "West Village",
    "website": "http://demowestvillage.com/",
    "lat": 40.7299274,
    "lon": -74.0029971,
    "program": "chase"
  },
  {
    "name": "ASKA",
    "address": "47 S 5th St, Brooklyn, NY 11249, USA",
    "city": "New Jersey",
    "cuisine": "Nordic",
    "neighborhood": "Williamsburg",
    "website": "http://askanyc.com/",
    "lat": 40.7124154,
    "lon": -73.96652449999999,
    "program": "chase"
  },
  {
    "name": "Farm & Table",
    "address": "8917 4th St NW, Albuquerque, NM 87114, USA",
    "city": "New Mexico",
    "cuisine": "Farm-to-table",
    "neighborhood": "Albuquerque",
    "website": "http://www.farmandtablenm.com/",
    "lat": 35.1834227,
    "lon": -106.6237587,
    "program": "chase"
  },
  {
    "name": "Brennan's",
    "address": "417 Royal St, New Orleans, LA 70130, USA",
    "city": "New Orleans",
    "cuisine": "Creole",
    "neighborhood": "French Quarter",
    "website": "https://www.brennansneworleans.com/",
    "lat": 29.9561453,
    "lon": -90.06664599999999,
    "program": "chase"
  },
  {
    "name": "GW Fins",
    "address": "808 Bienville St, New Orleans, LA 70112, USA",
    "city": "New Orleans",
    "cuisine": "Seafood",
    "neighborhood": "French Quarter",
    "website": "http://gwfins.com/",
    "lat": 29.955546299999998,
    "lon": -90.06883859999999,
    "program": "chase"
  },
  {
    "name": "La Petite Grocery",
    "address": "4238 Magazine St, New Orleans, LA 70115, USA",
    "city": "New Orleans",
    "cuisine": "French",
    "neighborhood": "Garden District",
    "website": "http://www.lapetitegrocery.com/",
    "lat": 29.920789100000004,
    "lon": -90.10012189999999,
    "program": "chase"
  },
  {
    "name": "Jewel of the South",
    "address": "1026 St Louis St, New Orleans, LA 70112, USA",
    "city": "New Orleans",
    "cuisine": "Contemporary British",
    "neighborhood": "French Quarter",
    "website": "https://www.jewelnola.com/",
    "lat": 29.958564600000003,
    "lon": -90.0695125,
    "program": "chase"
  },
  {
    "name": "Muriel's Jackson Square",
    "address": "801 Chartres St, New Orleans, LA 70116, USA",
    "city": "New Orleans",
    "cuisine": "Creole / Cajun / Southern",
    "neighborhood": "French Quarter",
    "website": "http://www.muriels.com/",
    "lat": 29.9584603,
    "lon": -90.0631932,
    "program": "chase"
  },
  {
    "name": "Restaurant August",
    "address": "301 Tchoupitoulas St, New Orleans, LA 70130, USA",
    "city": "New Orleans",
    "cuisine": "Contemporary French / American",
    "neighborhood": "Central Business District",
    "website": "http://www.restaurantaugust.com/",
    "lat": 29.9499784,
    "lon": -90.0667922,
    "program": "chase"
  },
  {
    "name": "Tableau",
    "address": "616 St Peter, New Orleans, LA 70116, USA",
    "city": "New Orleans",
    "cuisine": "Creole / Cajun / Southern",
    "neighborhood": "French Quarter",
    "website": "http://www.tableaufrenchquarter.com/",
    "lat": 29.957494299999997,
    "lon": -90.0641142,
    "program": "chase"
  },
  {
    "name": "Shaya",
    "address": "4213 Magazine St, New Orleans, LA 70115, USA",
    "city": "New Orleans",
    "cuisine": "Middle Eastern",
    "neighborhood": "Uptown",
    "website": "http://www.shayarestaurant.com/",
    "lat": 29.9210569,
    "lon": -90.0995463,
    "program": "chase"
  },
  {
    "name": "San Lorenzo at Hotel Saint Vincent",
    "address": "1507 Magazine St, New Orleans, LA 70130, USA",
    "city": "New Orleans",
    "cuisine": "Contemporary Italian",
    "neighborhood": "Garden District",
    "website": "https://saintvincentnola.com/dining/",
    "lat": 29.934151900000003,
    "lon": -90.0728985,
    "program": "chase"
  },
  {
    "name": "The Bower",
    "address": "1320 Magazine St, New Orleans, LA 70130, USA",
    "city": "New Orleans",
    "cuisine": "American",
    "neighborhood": "Lower Garden District",
    "website": "http://www.thebowernola.com/",
    "lat": 29.937896599999995,
    "lon": -90.0712854,
    "program": "chase"
  },
  {
    "name": "MAHT",
    "address": "519 NW 23rd St STE 111, Oklahoma City, OK 73103, USA",
    "city": "Oklahoma City",
    "cuisine": "Steakhouse",
    "neighborhood": "Oklahoma City",
    "website": "http://www.mahtokc.com/",
    "lat": 35.493439699999996,
    "lon": -97.52117489999999,
    "program": "chase"
  },
  {
    "name": "Perle Mesta",
    "address": "One Park Ave, Oklahoma City, OK 73102, USA",
    "city": "Oklahoma City",
    "cuisine": "American",
    "neighborhood": "Oklahoma City",
    "website": "https://www.perlemesta.com/",
    "lat": 35.4688375,
    "lon": -97.5135602,
    "program": "chase"
  },
  {
    "name": "Osteria",
    "address": "1704 NW 16th St, Oklahoma City, OK 73106, USA",
    "city": "Oklahoma City",
    "cuisine": "Italian",
    "neighborhood": "Oklahoma City",
    "website": "http://www.osteriaokc.com/",
    "lat": 35.4857921,
    "lon": -97.539191,
    "program": "chase"
  },
  {
    "name": "Grey Sweater",
    "address": "100 NE 4th St, Oklahoma City, OK 73104, USA",
    "city": "Oklahoma City",
    "cuisine": "Global International",
    "neighborhood": "Bricktown",
    "website": "http://greysweaterokc.com/",
    "lat": 35.471521599999996,
    "lon": -97.5097464,
    "program": "chase"
  },
  {
    "name": "nonesuch",
    "address": "803 N Hudson Ave, Oklahoma City, OK 73102, USA",
    "city": "Oklahoma City",
    "cuisine": "American",
    "neighborhood": "Midtown",
    "website": "http://www.nonesuchokc.com/",
    "lat": 35.475308999999996,
    "lon": -97.5194138,
    "program": "chase"
  },
  {
    "name": "Birdies by Chef Kevin Lee",
    "address": "2201 NW 150th St, Edmond, OK 73013, USA",
    "city": "Oklahoma City",
    "cuisine": "Contemporary Korean",
    "neighborhood": "Memorial Square",
    "website": "https://www.birdiesokc.com/",
    "lat": 35.6240489,
    "lon": -97.55142790000001,
    "program": "chase"
  },
  {
    "name": "The Pinery",
    "address": "295 NE Ivanhoe Blvd Suite A, Orlando, FL 32804, USA",
    "city": "Orlando",
    "cuisine": "Southern",
    "neighborhood": "Downtown Orlando",
    "website": "http://thepineryorlando.com/",
    "lat": 28.5657212,
    "lon": -81.3735066,
    "program": "chase"
  },
  {
    "name": "Norman's - Orlando",
    "address": "7924 Via Dellagio Way, Orlando, FL 32819, USA",
    "city": "Orlando",
    "cuisine": "Steakhouse",
    "neighborhood": "I Drive / Sand Lake",
    "website": "http://www.normans.com/",
    "lat": 28.450375,
    "lon": -81.49180199999999,
    "program": "chase"
  },
  {
    "name": "Primo",
    "address": "4040 Central Florida Pkwy, Orlando, FL 32837, USA",
    "city": "Orlando",
    "cuisine": "Italian",
    "neighborhood": "I Drive / Sand Lake",
    "website": "https://www.marriott.com/hotels/hotel-information/restaurant/details/mcojw-jw-marriott-orlando-grande-lakes/123963/?scid=feed67b0-9a2f-4de1-8df6-114544116108",
    "lat": 28.401494999999997,
    "lon": -81.428293,
    "program": "chase"
  },
  {
    "name": "Knife & Spoon",
    "address": "4012 Central Florida Pkwy, Orlando, FL 32837, USA",
    "city": "Orlando",
    "cuisine": "Steak",
    "neighborhood": "I Drive / Sand Lake",
    "website": "https://www.knifeandspoonrc.com/",
    "lat": 28.405700399999997,
    "lon": -81.4294527,
    "program": "chase"
  },
  {
    "name": "Charley's Steak House-Celebration FL",
    "address": "2901 Parkway Blvd Suite 1A, Kissimmee, FL 34747, USA",
    "city": "Orlando",
    "cuisine": "Steakhouse",
    "neighborhood": "Celebration",
    "website": "http://www.charleyssteakhouse.com/",
    "lat": 28.3340656,
    "lon": -81.5339691,
    "program": "chase"
  },
  {
    "name": "SkyHigh",
    "address": "One N 19th St, Philadelphia, PA 19103, USA",
    "city": "Philadelphia",
    "cuisine": "Cocktail Bar",
    "neighborhood": "Center City",
    "website": "https://www.skyhighphiladelphia.com/?utm_source=google&utm_medium=organicsearch&utm_campaign=tor-phi-fab-mid-seo-na&utm_content=na-na&utm_term=na",
    "lat": 39.956398199999995,
    "lon": -75.17043890000001,
    "program": "chase"
  },
  {
    "name": "Vernick Fish",
    "address": "One N 19th St, Philadelphia, PA 19103, USA",
    "city": "Philadelphia",
    "cuisine": "Cocktail Bar",
    "neighborhood": "Center City",
    "website": "https://www.vernickfish.com/?utm_source=google&utm_medium=organicsearch&utm_campaign=tor-phi-fab-mid-seo-na&utm_content=na-na&utm_term=na",
    "lat": 39.955287899999995,
    "lon": -75.1707661,
    "program": "chase"
  },
  {
    "name": "Friday Saturday Sunday",
    "address": "261 S 21st St, Philadelphia, PA 19103, USA",
    "city": "Philadelphia",
    "cuisine": "American",
    "neighborhood": "Center City",
    "website": "http://fridaysaturdaysunday.com/",
    "lat": 39.9489446,
    "lon": -75.1759667,
    "program": "chase"
  },
  {
    "name": "My Loup",
    "address": "2005 Walnut St, Philadelphia, PA 19103, USA",
    "city": "Philadelphia",
    "cuisine": "French",
    "neighborhood": "Center City",
    "website": "http://myloupphl.com/",
    "lat": 39.9508012,
    "lon": -75.1739867,
    "program": "chase"
  },
  {
    "name": "Pine Street Grill",
    "address": "2227 Pine St, Philadelphia, PA 19103, USA",
    "city": "Philadelphia",
    "cuisine": "American",
    "neighborhood": "Center City",
    "website": "https://www.pinestreetgrill.com/",
    "lat": 39.9474534,
    "lon": -75.17918259999999,
    "program": "chase"
  },
  {
    "name": "a.kitchen",
    "address": "135 S 18th St, Philadelphia, PA 19103, USA",
    "city": "Philadelphia",
    "cuisine": "French American",
    "neighborhood": "Center City",
    "website": "http://www.akitchenandbar.com/",
    "lat": 39.950391599999996,
    "lon": -75.1704008,
    "program": "chase"
  },
  {
    "name": "Her Place Supper Club",
    "address": "1740 Sansom St, Philadelphia, PA 19103, USA",
    "city": "Philadelphia",
    "cuisine": "American",
    "neighborhood": "Center City",
    "website": "http://www.herplacephilly.com/",
    "lat": 39.9507452,
    "lon": -75.1701679,
    "program": "chase"
  },
  {
    "name": "Mawn",
    "address": "764 S 9th St, Philadelphia, PA 19147, USA",
    "city": "Philadelphia",
    "cuisine": "Cambodian",
    "neighborhood": "Bella Vista",
    "website": "https://mawnphilly.com/",
    "lat": 39.9399678,
    "lon": -75.15789749999999,
    "program": "chase"
  },
  {
    "name": "Honeysuckle",
    "address": "631 N Broad St, Philadelphia, PA 19123, USA",
    "city": "Philadelphia",
    "cuisine": "American",
    "neighborhood": "North Broad",
    "website": "http://www.honeysucklephl.com/",
    "lat": 39.9645357,
    "lon": -75.1606417,
    "program": "chase"
  },
  {
    "name": "Vetri Cucina - Philadelphia",
    "address": "1312 Spruce St, Philadelphia, PA 19107, USA",
    "city": "Philadelphia",
    "cuisine": "Italian",
    "neighborhood": "Center City",
    "website": "http://www.vetricucina.com/",
    "lat": 39.9467259,
    "lon": -75.16317719999999,
    "program": "chase"
  },
  {
    "name": "High Street Restaurant & Bar",
    "address": "101 S 9th St Suite 106, Philadelphia, PA 19107, USA",
    "city": "Philadelphia",
    "cuisine": "American",
    "neighborhood": "Center City",
    "website": "http://www.highstreetphilly.com/",
    "lat": 39.9494611,
    "lon": -75.15546839999999,
    "program": "chase"
  },
  {
    "name": "Almanac",
    "address": "310 Market St Second Floor, Philadelphia, PA 19106, USA",
    "city": "Philadelphia",
    "cuisine": "Cocktail Bar",
    "neighborhood": "Old City",
    "website": "http://almanacphilly.com/",
    "lat": 39.9500962,
    "lon": -75.1462398,
    "program": "chase"
  },
  {
    "name": "Tabachoy",
    "address": "932 S 10th St, Philadelphia, PA 19147, USA",
    "city": "Philadelphia",
    "cuisine": "Filipino",
    "neighborhood": "South Philly",
    "website": "https://www.tabachoyphilly.com/",
    "lat": 39.9383395,
    "lon": -75.1597938,
    "program": "chase"
  },
  {
    "name": "Ogawa Sushi & Kappo Omakase",
    "address": "310 Market St First Floor, Philadelphia, PA 19106, USA",
    "city": "Philadelphia",
    "cuisine": "Sushi",
    "neighborhood": "Old City",
    "website": "https://www.ogawaphilly.com/",
    "lat": 39.9500962,
    "lon": -75.1462398,
    "program": "chase"
  },
  {
    "name": "Fat Ox",
    "address": "6316 N Scottsdale Rd, Scottsdale, AZ 85253, USA",
    "city": "Phoenix",
    "cuisine": "Italian",
    "neighborhood": "Central Scottsdale",
    "website": "https://www.ilovefatox.com/",
    "lat": 33.5306626,
    "lon": -111.9263469,
    "program": "chase"
  },
  {
    "name": "Wrigley Mansion - Geordie's",
    "address": "2501 E Telawa Trail, Phoenix, AZ 85016, USA",
    "city": "Phoenix",
    "cuisine": "American",
    "neighborhood": "Biltmore",
    "website": "http://www.wrigleymansion.com/",
    "lat": 33.5234362,
    "lon": -112.02692959999999,
    "program": "chase"
  },
  {
    "name": "The Mission – Old Town Scottsdale",
    "address": "3815 N Brown Ave, Scottsdale, AZ 85251, USA",
    "city": "Phoenix",
    "cuisine": "Latin American",
    "neighborhood": "Old Town Scottsdale",
    "website": "https://www.themissionaz.com/",
    "lat": 33.491839999999996,
    "lon": -111.92429539999999,
    "program": "chase"
  },
  {
    "name": "Christopher's at Wrigley Mansion",
    "address": "2501 E Telawa Trail, Phoenix, AZ 85016, USA",
    "city": "Phoenix",
    "cuisine": "Contemporary French",
    "neighborhood": "Biltmore",
    "website": "http://wrigleymansion.com/christophers/",
    "lat": 33.5228514,
    "lon": -112.02679769999999,
    "program": "chase"
  },
  {
    "name": "Lom Wong",
    "address": "218 E Portland St, Phoenix, AZ 85004, USA",
    "city": "Phoenix",
    "cuisine": "Thai",
    "neighborhood": "West Phoenix",
    "website": "http://www.lomwongaz.com/",
    "lat": 33.4601904,
    "lon": -112.0704312,
    "program": "chase"
  },
  {
    "name": "Chilte",
    "address": "765 Grand Ave, Phoenix, AZ 85007, USA",
    "city": "Phoenix",
    "cuisine": "Contemporary Mexican",
    "neighborhood": "West Phoenix",
    "website": "https://www.chiltephx.com/",
    "lat": 33.45281200000001,
    "lon": -112.0845473,
    "program": "chase"
  },
  {
    "name": "Course",
    "address": "7366 E Shea Blvd Suite 106, Scottsdale, AZ 85260, USA",
    "city": "Phoenix",
    "cuisine": "American",
    "neighborhood": "Central Scottsdale",
    "website": "https://courserestaurantaz.com/",
    "lat": 33.5841115,
    "lon": -111.9223001,
    "program": "chase"
  },
  {
    "name": "Latha Restaurant",
    "address": "628 E Adams St, Phoenix, AZ 85004, USA",
    "city": "Phoenix",
    "cuisine": "Contemporary American",
    "neighborhood": "Downtown Phoenix",
    "website": "https://www.lathaphx.com/",
    "lat": 33.449588299999995,
    "lon": -112.065452,
    "program": "chase"
  },
  {
    "name": "ELEVEN",
    "address": "1150 Smallman St, Pittsburgh, PA 15222, USA",
    "city": "Pittsburgh",
    "cuisine": "American",
    "neighborhood": "Downtown",
    "website": "http://www.elevenck.com/",
    "lat": 40.4460652,
    "lon": -79.993172,
    "program": "chase"
  },
  {
    "name": "Dolly Olive & Bar Dolly",
    "address": "527 SW 12th Ave, Portland, OR 97205, USA",
    "city": "Portland",
    "cuisine": "Italian",
    "neighborhood": "Downtown",
    "website": "http://dollyolivepdx.com/?utm_source=google-gmb-maps&utm_medium=gmb-website-button&utm_campaign=locl.io&utm_content=607740b1-c177-4d9d-8348-0cfbeba45699",
    "lat": 45.5213826,
    "lon": -122.68391380000001,
    "program": "chase"
  },
  {
    "name": "Oma's Hideaway",
    "address": "3131 SE Division St, Portland, OR 97202, USA",
    "city": "Portland",
    "cuisine": "Indonesian / Malaysian",
    "neighborhood": "Southeast Portland",
    "website": "http://omashideaway.com/",
    "lat": 45.5049916,
    "lon": -122.6328854,
    "program": "chase"
  },
  {
    "name": "Shalom Y'all",
    "address": "117 SE Taylor St #101, Portland, OR 97214, USA",
    "city": "Portland",
    "cuisine": "Mediterranean",
    "neighborhood": "Southeast Portland",
    "website": "http://www.shalomyallpdx.com/?utm_source=google-gmb-maps&utm_medium=gmb-website-button&utm_campaign=locl.io&utm_content=1e7967f7-164b-40c4-8d50-5ed83ed84e64",
    "lat": 45.515206299999996,
    "lon": -122.6643926,
    "program": "chase"
  },
  {
    "name": "Arden",
    "address": "417 NW 10th Ave, Portland, OR 97209, USA",
    "city": "Portland",
    "cuisine": "Contemporary American",
    "neighborhood": "Northwest Portland",
    "website": "https://www.ardenpdx.com/",
    "lat": 45.5260526,
    "lon": -122.681367,
    "program": "chase"
  },
  {
    "name": "Canard - Burnside",
    "address": "734 E Burnside St, Portland, OR 97214, USA",
    "city": "Portland",
    "cuisine": "Contemporary American",
    "neighborhood": "Northeast Portland",
    "website": "https://www.canardrestaurant.com/",
    "lat": 45.522799,
    "lon": -122.65799969999999,
    "program": "chase"
  },
  {
    "name": "L'Orange",
    "address": "2005 SE 11th Ave, Portland, OR 97214, USA",
    "city": "Portland",
    "cuisine": "Mediterranean",
    "neighborhood": "Southeast Portland",
    "website": "http://www.lorangepdx.com/",
    "lat": 45.508519899999996,
    "lon": -122.65492760000001,
    "program": "chase"
  },
  {
    "name": "Jeju",
    "address": "626 SE Main St, Portland, OR 97214, USA",
    "city": "Portland",
    "cuisine": "Korean",
    "neighborhood": "Southeast Portland",
    "website": "https://jejupdx.com/",
    "lat": 45.513565,
    "lon": -122.65924539999999,
    "program": "chase"
  },
  {
    "name": "Nodoguro",
    "address": "515 SW Broadway #100, Portland, OR 97205, USA",
    "city": "Portland",
    "cuisine": "Japanese Speciality",
    "neighborhood": "Downtown",
    "website": "http://www.nodoguropdx.com/",
    "lat": 45.520561,
    "lon": -122.67919699999999,
    "program": "chase"
  },
  {
    "name": "Xiao Ye",
    "address": "3832 NE Sandy Blvd, Portland, OR 97232, USA",
    "city": "Portland",
    "cuisine": "American",
    "neighborhood": "Northeast Portland",
    "website": "https://www.xiaoyepdx.com/",
    "lat": 45.53450600000001,
    "lon": -122.62344300000001,
    "program": "chase"
  },
  {
    "name": "Han Oak",
    "address": "511 NE 24th Ave, Portland, OR 97232, USA",
    "city": "Portland",
    "cuisine": "Korean",
    "neighborhood": "Northeast Portland",
    "website": "http://www.hanoakpdx.com/",
    "lat": 45.5268066,
    "lon": -122.64183500000001,
    "program": "chase"
  },
  {
    "name": "Hayward",
    "address": "209 N Kutch St, Carlton, OR 97111, USA",
    "city": "Portland",
    "cuisine": "Farm-to-table",
    "neighborhood": "McMinnville",
    "website": "http://haywardrestaurant.com/",
    "lat": 45.294625,
    "lon": -123.17884040000001,
    "program": "chase"
  },
  {
    "name": "Poole's Diner",
    "address": "428 South McDowell St, Raleigh, NC 27601, USA",
    "city": "Raleigh",
    "cuisine": "American",
    "neighborhood": "Raleigh",
    "website": "http://ac-restaurants.com/pooles/",
    "lat": 35.7746792,
    "lon": -78.6423138,
    "program": "chase"
  },
  {
    "name": "Tamasha Modern Indian",
    "address": "4200 Six Forks Rd Suite # 130, Raleigh, NC 27609, USA",
    "city": "Raleigh",
    "cuisine": "Indian",
    "neighborhood": "Raleigh",
    "website": "http://tamashanc.com/",
    "lat": 35.8358919,
    "lon": -78.638385,
    "program": "chase"
  },
  {
    "name": "Death & Taxes",
    "address": "105 W Hargett St, Raleigh, NC 27601, USA",
    "city": "Raleigh",
    "cuisine": "American",
    "neighborhood": "Raleigh",
    "website": "http://www.ac-restaurants.com/death-taxes/",
    "lat": 35.7781944,
    "lon": -78.6404271,
    "program": "chase"
  },
  {
    "name": "La Terrazza",
    "address": "223 S West St 9th Floor, Raleigh, NC 27603, USA",
    "city": "Raleigh",
    "cuisine": "Mediterranean",
    "neighborhood": "Raleigh",
    "website": "https://www.laterrazzaraleigh.com/",
    "lat": 35.7774156,
    "lon": -78.645538,
    "program": "chase"
  },
  {
    "name": "Herons",
    "address": "The Umstead Hotel and Spa, 100 Woodland Pond Dr, Cary, NC 27513, USA",
    "city": "Raleigh",
    "cuisine": "American",
    "neighborhood": "Cary",
    "website": "http://www.theumstead.com/",
    "lat": 35.8294788,
    "lon": -78.7645805,
    "program": "chase"
  },
  {
    "name": "Hemenway's",
    "address": "121 S Main St, Providence, RI 02903, USA",
    "city": "Rhode Island",
    "cuisine": "Seafood",
    "neighborhood": "Providence",
    "website": "https://www.hemenwaysrestaurant.com/",
    "lat": 41.8242135,
    "lon": -71.4069133,
    "program": "chase"
  },
  {
    "name": "Gracie's",
    "address": "194 Washington St, Providence, RI 02903, USA",
    "city": "Rhode Island",
    "cuisine": "Contemporary American",
    "neighborhood": "Providence",
    "website": "https://graciesprov.com/",
    "lat": 41.822057,
    "lon": -71.4158905,
    "program": "chase"
  },
  {
    "name": "Waterman Grille",
    "address": "4 Richmond Square, Providence, RI 02906, USA",
    "city": "Rhode Island",
    "cuisine": "American",
    "neighborhood": "Providence",
    "website": "https://www.watermangrille.com/",
    "lat": 41.827296,
    "lon": -71.38099,
    "program": "chase"
  },
  {
    "name": "Los Andes Restaurant",
    "address": "903 Chalkstone Ave, Providence, RI 02908, USA",
    "city": "Rhode Island",
    "cuisine": "Peruvian",
    "neighborhood": "Providence",
    "website": "http://www.losandesri.com/",
    "lat": 41.8332623,
    "lon": -71.4373663,
    "program": "chase"
  },
  {
    "name": "Stella's - Richmond",
    "address": "1012 Lafayette St, Richmond, VA 23221, USA",
    "city": "Richmond",
    "cuisine": "Greek",
    "neighborhood": "Richmond",
    "website": "http://www.stellasrichmond.com/",
    "lat": 37.567553100000005,
    "lon": -77.48641909999999,
    "program": "chase"
  },
  {
    "name": "Prohibition",
    "address": "151 E 6100 S, Murray, UT 84107, USA",
    "city": "Salt Lake City",
    "cuisine": "American",
    "neighborhood": "Murray",
    "website": "https://www.prohibitionutah.com/",
    "lat": 40.638713599999996,
    "lon": -111.8868081,
    "program": "chase"
  },
  {
    "name": "Monte",
    "address": "2245 S W Temple St, South Salt Lake, UT 84115, USA",
    "city": "Salt Lake City",
    "cuisine": "Contemporary American",
    "neighborhood": "South Salt Lake",
    "website": "https://monteslc.com/",
    "lat": 40.7221246,
    "lon": -111.89339030000001,
    "program": "chase"
  },
  {
    "name": "Sunday's Best at the Post District",
    "address": "505 Gale St, Salt Lake City, UT 84101, USA",
    "city": "Salt Lake City",
    "cuisine": "Breakfast",
    "neighborhood": "Downtown",
    "website": "https://www.brunchmehard.com/",
    "lat": 40.75822,
    "lon": -111.90100439999999,
    "program": "chase"
  },
  {
    "name": "Matteo Ristorante Italiano",
    "address": "77 W 200 S #100, Salt Lake City, UT 84101, USA",
    "city": "Salt Lake City",
    "cuisine": "Italian",
    "neighborhood": "Salt Lake City",
    "website": "https://www.matteoslc.com/",
    "lat": 40.764692499999995,
    "lon": -111.8935288,
    "program": "chase"
  },
  {
    "name": "Cosmica",
    "address": "945 S 300 W #102, Salt Lake City, UT 84101, USA",
    "city": "Salt Lake City",
    "cuisine": "Italian",
    "neighborhood": "People's Freeway",
    "website": "http://cosmicasaltlake.com/",
    "lat": 40.7484143,
    "lon": -111.8994623,
    "program": "chase"
  },
  {
    "name": "Chase Sapphire Reserve presents Frasca Food and Wine",
    "address": "201 Heber Ave, Park City, UT 84060, USA",
    "city": "Salt Lake City",
    "cuisine": "Italian",
    "neighborhood": "Park City",
    "website": "",
    "lat": 40.6466431,
    "lon": -111.4968083,
    "program": "chase"
  },
  {
    "name": "Clementine",
    "address": "2195 NW Military Hwy, San Antonio, TX 78213, USA",
    "city": "San Antonio",
    "cuisine": "Contemporary American",
    "neighborhood": "North Central",
    "website": "http://www.clementine-sa.com/",
    "lat": 29.5329986,
    "lon": -98.52187699999999,
    "program": "chase"
  },
  {
    "name": "C-Level",
    "address": "880 Harbor Island Dr, San Diego, CA 92101, USA",
    "city": "San Diego",
    "cuisine": "Cocktail Bar",
    "neighborhood": "Downtown",
    "website": "https://www.clevelsd.com/",
    "lat": 32.7241309,
    "lon": -117.188588,
    "program": "chase"
  },
  {
    "name": "Ironside Fish & Oyster",
    "address": "1654 India St, San Diego, CA 92101, USA",
    "city": "San Diego",
    "cuisine": "Seafood",
    "neighborhood": "Little Italy",
    "website": "https://ironsidefishandoyster.com/",
    "lat": 32.7226753,
    "lon": -117.16857929999999,
    "program": "chase"
  },
  {
    "name": "Coasterra",
    "address": "880 B Harbor Island Dr, San Diego, CA 92101, USA",
    "city": "San Diego",
    "cuisine": "Mexican",
    "neighborhood": "Harbor Island",
    "website": "https://www.coasterra.com/",
    "lat": 32.724323999999996,
    "lon": -117.1881433,
    "program": "chase"
  },
  {
    "name": "Marisi",
    "address": "1044 Wall St, La Jolla, CA 92037, USA",
    "city": "San Diego",
    "cuisine": "Italian",
    "neighborhood": "La Jolla",
    "website": "https://www.marisilajolla.com/",
    "lat": 32.8471174,
    "lon": -117.27353609999999,
    "program": "chase"
  },
  {
    "name": "Herb & Wood",
    "address": "2210 Kettner Blvd, San Diego, CA 92101, USA",
    "city": "San Diego",
    "cuisine": "Californian",
    "neighborhood": "Little Italy",
    "website": "https://www.herbandwood.com/",
    "lat": 32.727334299999995,
    "lon": -117.1710044,
    "program": "chase"
  },
  {
    "name": "Animae",
    "address": "969 Pacific Hwy, San Diego, CA 92101, USA",
    "city": "San Diego",
    "cuisine": "Contemporary Asian",
    "neighborhood": "Downtown",
    "website": "https://www.animaesd.com/",
    "lat": 32.715116,
    "lon": -117.17052199999999,
    "program": "chase"
  },
  {
    "name": "Juniper & Ivy",
    "address": "2228 Kettner Blvd, San Diego, CA 92101, USA",
    "city": "San Diego",
    "cuisine": "Farm-to-table",
    "neighborhood": "Little Italy",
    "website": "https://www.juniperandivy.com/",
    "lat": 32.7274546,
    "lon": -117.1711882,
    "program": "chase"
  },
  {
    "name": "Kettner Exchange",
    "address": "2001 Kettner Blvd, San Diego, CA 92101, USA",
    "city": "San Diego",
    "cuisine": "Contemporary American",
    "neighborhood": "Little Italy",
    "website": "http://www.kettnerexchange.com/",
    "lat": 32.7253645,
    "lon": -117.1697595,
    "program": "chase"
  },
  {
    "name": "Island Prime",
    "address": "880 Harbor Island Dr, San Diego, CA 92101, USA",
    "city": "San Diego",
    "cuisine": "Steakhouse",
    "neighborhood": "Downtown",
    "website": "https://www.islandprime.com/",
    "lat": 32.7241177,
    "lon": -117.18866799999999,
    "program": "chase"
  },
  {
    "name": "The Marine Room",
    "address": "1950 Spindrift Dr, La Jolla, CA 92037, USA",
    "city": "San Diego",
    "cuisine": "Seafood",
    "neighborhood": "La Jolla",
    "website": "https://www.marineroom.com/?utm_source=google&utm_medium=organic&utm_campaign=gbp_listing",
    "lat": 32.852836599999996,
    "lon": -117.2601311,
    "program": "chase"
  },
  {
    "name": "Paradisaea",
    "address": "5680 La Jolla Blvd, San Diego, CA 92037, USA",
    "city": "San Diego",
    "cuisine": "Californian",
    "neighborhood": "La Jolla",
    "website": "https://www.paradisaea.com/",
    "lat": 32.815357999999996,
    "lon": -117.27076380000001,
    "program": "chase"
  },
  {
    "name": "Solare Ristorante Lounge",
    "address": "2820 Roosevelt Rd, San Diego, CA 92106, USA",
    "city": "San Diego",
    "cuisine": "Italian",
    "neighborhood": "Point Loma",
    "website": "https://solarelounge.com/",
    "lat": 32.7373632,
    "lon": -117.21400790000001,
    "program": "chase"
  },
  {
    "name": "The Whaling Bar",
    "address": "1132 Prospect St, La Jolla, CA 92037, USA",
    "city": "San Diego",
    "cuisine": "Californian",
    "neighborhood": "La Jolla",
    "website": "https://www.lavalencia.com/dining/the-whaling-bar",
    "lat": 32.8485632,
    "lon": -117.27349650000001,
    "program": "chase"
  },
  {
    "name": "Casa Gabriela",
    "address": "8384 La Mesa Blvd, La Mesa, CA 91942, USA",
    "city": "San Diego",
    "cuisine": "Mexican",
    "neighborhood": "La Mesa",
    "website": "https://www.casagabrielalamesa.com/",
    "lat": 32.7658491,
    "lon": -117.01753099999998,
    "program": "chase"
  },
  {
    "name": "Herb & Sea",
    "address": "131 W D St, Encinitas, CA 92024, USA",
    "city": "San Diego",
    "cuisine": "Californian",
    "neighborhood": "Encinitas",
    "website": "https://www.herbandsea.com/",
    "lat": 33.0457487,
    "lon": -117.2943943,
    "program": "chase"
  },
  {
    "name": "KINDRED",
    "address": "1503 30th St, San Diego, CA 92102, USA",
    "city": "San Diego",
    "cuisine": "Vegetarian / Vegan",
    "neighborhood": "South Park",
    "website": "http://www.barkindred.com/",
    "lat": 32.7214597,
    "lon": -117.13006279999999,
    "program": "chase"
  },
  {
    "name": "Vintana Wine & Dine",
    "address": "1205 Auto Park Way, Escondido, CA 92029, USA",
    "city": "San Diego",
    "cuisine": "American",
    "neighborhood": "Escondido",
    "website": "https://www.dinevintana.com/",
    "lat": 33.1067716,
    "lon": -117.0967838,
    "program": "chase"
  },
  {
    "name": "Lilo",
    "address": "2571 Roosevelt St, Carlsbad, CA 92008, USA",
    "city": "San Diego",
    "cuisine": "Californian",
    "neighborhood": "Carlsbad",
    "website": "http://restaurantlilo.com/",
    "lat": 33.1643711,
    "lon": -117.35146909999999,
    "program": "chase"
  },
  {
    "name": "Jeune et Jolie",
    "address": "2659 State St Suite 102, Carlsbad, CA 92008, USA",
    "city": "San Diego",
    "cuisine": "Contemporary French",
    "neighborhood": "Carlsbad",
    "website": "http://jeune-jolie.com/",
    "lat": 33.1629346,
    "lon": -117.35172579999998,
    "program": "chase"
  },
  {
    "name": "Burdell",
    "address": "4640 Telegraph Ave, Oakland, CA 94609, USA",
    "city": "San Francisco",
    "cuisine": "Soul food",
    "neighborhood": "Oakland",
    "website": "https://www.burdelloakland.com/",
    "lat": 37.8341322,
    "lon": -122.26287419999998,
    "program": "chase"
  },
  {
    "name": "Popoca",
    "address": "906 Washington St, Oakland, CA 94607, USA",
    "city": "San Francisco",
    "cuisine": "Latin American",
    "neighborhood": "Oakland",
    "website": "http://www.popocaoakland.com/",
    "lat": 37.80150270000001,
    "lon": -122.27419889999999,
    "program": "chase"
  },
  {
    "name": "Che Fico San Francisco",
    "address": "838 Divisadero St, San Francisco, CA 94117, USA",
    "city": "San Francisco",
    "cuisine": "Italian",
    "neighborhood": "North Panhandle / USF",
    "website": "https://www.chefico.com/",
    "lat": 37.7773909,
    "lon": -122.43814599999999,
    "program": "chase"
  },
  {
    "name": "The Progress",
    "address": "1525 Fillmore St, San Francisco, CA 94115, USA",
    "city": "San Francisco",
    "cuisine": "Contemporary American",
    "neighborhood": "Western Addition",
    "website": "http://www.theprogress-sf.com/",
    "lat": 37.7836666,
    "lon": -122.43297069999998,
    "program": "chase"
  },
  {
    "name": "Angler San Francisco",
    "address": "132 The Embarcadero, San Francisco, CA 94105, USA",
    "city": "San Francisco",
    "cuisine": "American",
    "neighborhood": "Financial District / Embarcadero",
    "website": "https://www.anglerrestaurants.com/",
    "lat": 37.7930864,
    "lon": -122.392181,
    "program": "chase"
  },
  {
    "name": "Niku Steakhouse",
    "address": "61 Division St, San Francisco, CA 94103, USA",
    "city": "San Francisco",
    "cuisine": "Steakhouse",
    "neighborhood": "SOMA",
    "website": "https://www.nikusteakhouse.com/",
    "lat": 37.7696906,
    "lon": -122.40351749999999,
    "program": "chase"
  },
  {
    "name": "Bodega SF",
    "address": "138 Mason St, San Francisco, CA 94102, USA",
    "city": "San Francisco",
    "cuisine": "Vietnamese",
    "neighborhood": "Financial District / Embarcadero",
    "website": "http://bodegarestaurants.com/",
    "lat": 37.7848262,
    "lon": -122.4093022,
    "program": "chase"
  },
  {
    "name": "Rich Table",
    "address": "199 Gough St, San Francisco, CA 94102, USA",
    "city": "San Francisco",
    "cuisine": "Californian",
    "neighborhood": "Western Addition",
    "website": "http://richtablesf.com/",
    "lat": 37.7748657,
    "lon": -122.4228497,
    "program": "chase"
  },
  {
    "name": "Gary Danko",
    "address": "800 North Point St, San Francisco, CA 94109, USA",
    "city": "San Francisco",
    "cuisine": "Contemporary French / American",
    "neighborhood": "Fisherman's Wharf",
    "website": "http://www.garydanko.com/",
    "lat": 37.8058651,
    "lon": -122.42060430000001,
    "program": "chase"
  },
  {
    "name": "little shucker",
    "address": "2016 Fillmore St, San Francisco, CA 94115, USA",
    "city": "San Francisco",
    "cuisine": "Seafood",
    "neighborhood": "Pacific Heights",
    "website": "http://littleshucker.com/",
    "lat": 37.7882506,
    "lon": -122.43353239999998,
    "program": "chase"
  },
  {
    "name": "Saison Cellar & Wine Bar - San Francisco",
    "address": "234 Townsend St, San Francisco, CA 94107, USA",
    "city": "San Francisco",
    "cuisine": "Wine Bar",
    "neighborhood": "SOMA",
    "website": "https://saisonwinebar.com/",
    "lat": 37.778207099999996,
    "lon": -122.3938085,
    "program": "chase"
  },
  {
    "name": "Aziza",
    "address": "5800 Geary Blvd, San Francisco, CA 94121, USA",
    "city": "San Francisco",
    "cuisine": "Californian",
    "neighborhood": "Richmond District",
    "website": "http://www.azizasf.com/",
    "lat": 37.7804334,
    "lon": -122.48170599999999,
    "program": "chase"
  },
  {
    "name": "Hilda and Jesse",
    "address": "701 Union St, San Francisco, CA 94133, USA",
    "city": "San Francisco",
    "cuisine": "Contemporary American",
    "neighborhood": "North Beach",
    "website": "http://www.hildaandjessesf.com/",
    "lat": 37.8000413,
    "lon": -122.41104370000001,
    "program": "chase"
  },
  {
    "name": "Saison",
    "address": "178 Townsend St, San Francisco, CA 94107, USA",
    "city": "San Francisco",
    "cuisine": "American",
    "neighborhood": "SOMA",
    "website": "https://www.saisonsf.com/",
    "lat": 37.779522799999995,
    "lon": -122.39226909999998,
    "program": "chase"
  },
  {
    "name": "Californios",
    "address": "355 11th St, San Francisco, CA 94103, USA",
    "city": "San Francisco",
    "cuisine": "Mexican",
    "neighborhood": "SOMA",
    "website": "https://www.californiossf.com/?utm_source=google&utm_medium=organic&utm_campaign=gbp-website-link",
    "lat": 37.7714672,
    "lon": -122.41287229999999,
    "program": "chase"
  },
  {
    "name": "Selby's",
    "address": "3001 El Camino Real, Redwood City, CA 94061, USA",
    "city": "San Francisco",
    "cuisine": "American",
    "neighborhood": "Menlo Park",
    "website": "http://www.selbysrestaurant.com/",
    "lat": 37.4685773,
    "lon": -122.21037299999998,
    "program": "chase"
  },
  {
    "name": "O' by Claude Le Tohic",
    "address": "165 O'Farrell St 5th Floor, San Francisco, CA 94102, USA",
    "city": "San Francisco",
    "cuisine": "Contemporary French",
    "neighborhood": "Downtown / Union Square",
    "website": "https://one65sf.com/concept/o/",
    "lat": 37.7862462,
    "lon": -122.40737100000001,
    "program": "chase"
  },
  {
    "name": "Nisei",
    "address": "2316 Polk St, San Francisco, CA 94109, USA",
    "city": "San Francisco",
    "cuisine": "Japanese",
    "neighborhood": "Russian Hill",
    "website": "https://www.restaurantnisei.com/?utm_source=google&utm_medium=organic&utm_campaign=gbp-website-link",
    "lat": 37.7981765,
    "lon": -122.42208529999999,
    "program": "chase"
  },
  {
    "name": "PRESS Restaurant",
    "address": "587 St Helena Hwy, St Helena, CA 94574, USA",
    "city": "San Francisco",
    "cuisine": "American",
    "neighborhood": "St. Helena",
    "website": "http://www.pressnapavalley.com/",
    "lat": 38.488889,
    "lon": -122.4506605,
    "program": "chase"
  },
  {
    "name": "SingleThread Restaurant & Inn",
    "address": "131 North St, Healdsburg, CA 95448, USA",
    "city": "San Francisco",
    "cuisine": "Californian",
    "neighborhood": "Healdsburg",
    "website": "http://singlethreadfarms.com/",
    "lat": 38.6123026,
    "lon": -122.86970319999999,
    "program": "chase"
  },
  {
    "name": "Chez Noir",
    "address": "5th Ave between Dolores and, San Carlos St, Carmel-By-The-Sea, CA 93921, USA",
    "city": "San Francisco",
    "cuisine": "French",
    "neighborhood": "Carmel",
    "website": "http://cheznoircarmel.com/?utm_source=gmb&utm_medium=referral",
    "lat": 36.5569346,
    "lon": -121.92233080000001,
    "program": "chase"
  },
  {
    "name": "Ella Dining Room and Bar",
    "address": "1131 K St, Sacramento, CA 95814, USA",
    "city": "San Francisco",
    "cuisine": "Contemporary American",
    "neighborhood": "Sacramento",
    "website": "http://www.elladiningroomandbar.com/",
    "lat": 38.578649399999996,
    "lon": -121.49135890000001,
    "program": "chase"
  },
  {
    "name": "Camden Spit and Larder",
    "address": "555 Capitol Mall #100, Sacramento, CA 95814, USA",
    "city": "San Francisco",
    "cuisine": "American",
    "neighborhood": "Sacramento",
    "website": "https://www.camdenspitandlarder.com/",
    "lat": 38.5787917,
    "lon": -121.50026240000001,
    "program": "chase"
  },
  {
    "name": "Canon",
    "address": "1719 34th St, Sacramento, CA 95816, USA",
    "city": "San Francisco",
    "cuisine": "American",
    "neighborhood": "Sacramento",
    "website": "http://canoneastsac.com/",
    "lat": 38.564372,
    "lon": -121.46477569999999,
    "program": "chase"
  },
  {
    "name": "Lark",
    "address": "952 E Seneca St, Seattle, WA 98122, USA",
    "city": "Seattle",
    "cuisine": "Contemporary American",
    "neighborhood": "Capitol Hill / First Hill",
    "website": "http://www.larkseattle.com/",
    "lat": 47.612312599999996,
    "lon": -122.3196472,
    "program": "chase"
  },
  {
    "name": "Atoma Seattle",
    "address": "1411 N 45th St, Seattle, WA 98103, USA",
    "city": "Seattle",
    "cuisine": "Contemporary American",
    "neighborhood": "Wallingford",
    "website": "http://atomaseattle.com/",
    "lat": 47.6611903,
    "lon": -122.34009149999999,
    "program": "chase"
  },
  {
    "name": "Westward",
    "address": "2501 N Northlake Way, Seattle, WA 98103, USA",
    "city": "Seattle",
    "cuisine": "Northwest",
    "neighborhood": "Wallingford",
    "website": "https://www.westwardseattle.com/",
    "lat": 47.65171960000001,
    "lon": -122.3287866,
    "program": "chase"
  },
  {
    "name": "Takai by Kashiba",
    "address": "180 Bellevue Way NE, Bellevue, WA 98004, USA",
    "city": "Seattle",
    "cuisine": "Sushi",
    "neighborhood": "Bellevue",
    "website": "https://takaibykashiba.com/",
    "lat": 47.611568299999995,
    "lon": -122.20128789999998,
    "program": "chase"
  },
  {
    "name": "Cafe Juanita",
    "address": "9702 NE 120th Pl, Kirkland, WA 98034, USA",
    "city": "Seattle",
    "cuisine": "Italian",
    "neighborhood": "Kirkland",
    "website": "http://www.cafejuanita.com/",
    "lat": 47.7076424,
    "lon": -122.21241049999998,
    "program": "chase"
  },
  {
    "name": "TOMO",
    "address": "9811 16th Ave SW, Seattle, WA 98106, USA",
    "city": "Seattle",
    "cuisine": "American",
    "neighborhood": "White Center",
    "website": "http://www.tomoseattle.com/",
    "lat": 47.515201999999995,
    "lon": -122.355379,
    "program": "chase"
  },
  {
    "name": "Olive + Oak",
    "address": "216 W Lockwood Ave, Webster Groves, MO 63119, USA",
    "city": "St. Louis",
    "cuisine": "American",
    "neighborhood": "St. Louis",
    "website": "https://oliveandoak.oohosp.com/",
    "lat": 38.5931132,
    "lon": -90.3615256,
    "program": "chase"
  },
  {
    "name": "Madrina",
    "address": "101 W Lockwood Ave, Webster Groves, MO 63119, USA",
    "city": "St. Louis",
    "cuisine": "Italian",
    "neighborhood": "Webster Groves",
    "website": "https://madrinastl.com/",
    "lat": 38.593159199999995,
    "lon": -90.35963129999999,
    "program": "chase"
  },
  {
    "name": "Idol Wolf - 21c Museum Hotel St. Louis",
    "address": "1528 Locust St, St. Louis, MO 63103, USA",
    "city": "St. Louis",
    "cuisine": "Spanish",
    "neighborhood": "St. Louis",
    "website": "https://idolwolfstl.com/",
    "lat": 38.6315465,
    "lon": -90.20237569999999,
    "program": "chase"
  },
  {
    "name": "Psomi",
    "address": "701 N Howard Ave, Tampa, FL 33606, USA",
    "city": "Tampa",
    "cuisine": "Greek",
    "neighborhood": "Tampa",
    "website": "http://www.eatpsomi.com/",
    "lat": 27.9501545,
    "lon": -82.4827529,
    "program": "chase"
  },
  {
    "name": "Predalina",
    "address": "1001 E Cumberland Ave, Tampa, FL 33602, USA",
    "city": "Tampa",
    "cuisine": "Mediterranean",
    "neighborhood": "Tampa",
    "website": "https://predalina.com/",
    "lat": 27.944868,
    "lon": -82.45000449999999,
    "program": "chase"
  },
  {
    "name": "Fortu",
    "address": "97 Central Ave, St. Petersburg, FL 33701, USA",
    "city": "Tampa",
    "cuisine": "Contemporary Asian",
    "neighborhood": "St. Petersburg",
    "website": "http://forturestaurants.com/",
    "lat": 27.7713914,
    "lon": -82.633608,
    "program": "chase"
  },
  {
    "name": "Il Ritorno",
    "address": "449 Central Ave #101st, St. Petersburg, FL 33701, USA",
    "city": "Tampa",
    "cuisine": "Italian",
    "neighborhood": "St. Petersburg",
    "website": "http://www.ilritornodowntown.com/",
    "lat": 27.771354000000002,
    "lon": -82.63963199999999,
    "program": "chase"
  },
  {
    "name": "Ava June",
    "address": "1301 E 15th St, Tulsa, OK 74120, USA",
    "city": "Tulsa",
    "cuisine": "French",
    "neighborhood": "East Village",
    "website": "https://avajunetulsa.com/",
    "lat": 36.140757,
    "lon": -95.97549,
    "program": "chase"
  },
  {
    "name": "Amelia's Wood-Fired Cuisine",
    "address": "122 N Boston Ave, Tulsa, OK 74103, USA",
    "city": "Tulsa",
    "cuisine": "American",
    "neighborhood": "Tulsa",
    "website": "http://amelias.us/",
    "lat": 36.158345499999996,
    "lon": -95.99259959999999,
    "program": "chase"
  },
  {
    "name": "LoFi",
    "address": "1301 E 15th St, Tulsa, OK 74120, USA",
    "city": "Tulsa",
    "cuisine": "Pizzeria",
    "neighborhood": "Tulsa",
    "website": "https://www.lofitulsa.com/",
    "lat": 36.140804599999996,
    "lon": -95.9754136,
    "program": "chase"
  },
  {
    "name": "Amazonia",
    "address": "920 Blagden Alley NW 2nd Floor, Washington, DC 20001, USA",
    "city": "Washington DC",
    "cuisine": "Peruvian",
    "neighborhood": "Mount Vernon Square",
    "website": "http://amazoniadc.com/",
    "lat": 38.9065162,
    "lon": -77.0247586,
    "program": "chase"
  },
  {
    "name": "Dauphine's",
    "address": "1100 15th St NW, Washington, DC 20005, USA",
    "city": "Washington DC",
    "cuisine": "Contemporary American",
    "neighborhood": "Downtown",
    "website": "http://www.dauphinesdc.com/",
    "lat": 38.9042719,
    "lon": -77.0349714,
    "program": "chase"
  },
  {
    "name": "Thip Khao",
    "address": "3462 14th St NW, Washington, DC 20010, USA",
    "city": "Washington DC",
    "cuisine": "Laotian",
    "neighborhood": "Columbia Heights / Brightwood",
    "website": "http://www.thipkhao.com/",
    "lat": 38.9329915,
    "lon": -77.0329838,
    "program": "chase"
  },
  {
    "name": "Bresca",
    "address": "1906 14th St NW, Washington, DC 20009, USA",
    "city": "Washington DC",
    "cuisine": "Contemporary French / American",
    "neighborhood": "U Street Corridor",
    "website": "http://www.brescadc.com/",
    "lat": 38.9158067,
    "lon": -77.03219539999999,
    "program": "chase"
  },
  {
    "name": "Elmina",
    "address": "2208 14th St NW, Washington, DC 20009, USA",
    "city": "Washington DC",
    "cuisine": "African",
    "neighborhood": "U Street Corridor",
    "website": "https://www.elminarestaurant.com/",
    "lat": 38.9195509,
    "lon": -77.0323219,
    "program": "chase"
  },
  {
    "name": "Causa",
    "address": "920 Blagden Alley NW 1st Floor, Washington, DC 20001, USA",
    "city": "Washington DC",
    "cuisine": "Peruvian",
    "neighborhood": "Shaw",
    "website": "https://causadc.com/",
    "lat": 38.9069113,
    "lon": -77.0247957,
    "program": "chase"
  },
  {
    "name": "Service Bar",
    "address": "926-928 U St NW, Washington, DC 20001, USA",
    "city": "Washington DC",
    "cuisine": "Cocktail Bar",
    "neighborhood": "Mount Vernon Square",
    "website": "http://www.servicebardc.com/",
    "lat": 38.916869299999995,
    "lon": -77.02502559999999,
    "program": "chase"
  },
  {
    "name": "Xiquet by Danny Lledó",
    "address": "2404 Wisconsin Ave NW, Washington, DC 20007, USA",
    "city": "Washington DC",
    "cuisine": "Spanish",
    "neighborhood": "Georgetown",
    "website": "https://www.xiquetdl.com/",
    "lat": 38.9212801,
    "lon": -77.0724259,
    "program": "chase"
  },
  {
    "name": "El Taller del Xiquet",
    "address": "2404 Wisconsin Ave NW 1st Floor, Washington, DC 20007, USA",
    "city": "Washington DC",
    "cuisine": "Spanish",
    "neighborhood": "Georgetown",
    "website": "https://www.eltallerdelxiquet.com/",
    "lat": 38.9212801,
    "lon": -77.0724259,
    "program": "chase"
  },
  {
    "name": "The Duck and the Peach",
    "address": "300 7th St SE, Washington, DC 20003, USA",
    "city": "Washington DC",
    "cuisine": "American",
    "neighborhood": "Capitol Hill",
    "website": "https://www.duckandpeachdc.com/",
    "lat": 38.885751,
    "lon": -76.995919,
    "program": "chase"
  },
  {
    "name": "The Ruxton",
    "address": "720 Aliceanna St, Baltimore, MD 21202, USA",
    "city": "Washington DC",
    "cuisine": "Steakhouse",
    "neighborhood": "Harbor East",
    "website": "http://theruxtonsteakhouse.com/",
    "lat": 39.283377099999996,
    "lon": -76.6023062,
    "program": "chase"
  },
  {
    "name": "Azumi",
    "address": "725 Aliceanna St, Baltimore, MD 21202, USA",
    "city": "Washington DC",
    "cuisine": "Japanese",
    "neighborhood": "Harbor East",
    "website": "http://www.azumirestaurant.com/",
    "lat": 39.2827766,
    "lon": -76.6029077,
    "program": "chase"
  },
  {
    "name": "MARTA",
    "address": "2127 E Pratt St, Baltimore, MD 21231, USA",
    "city": "Washington DC",
    "cuisine": "Contemporary American",
    "neighborhood": "Upper Fells Point",
    "website": "https://www.martabaltimore.com/",
    "lat": 39.2894173,
    "lon": -76.5862162,
    "program": "chase"
  },
  {
    "name": "Cypriana - Homewood",
    "address": "105 W 39th St, Baltimore, MD 21210, USA",
    "city": "Washington DC",
    "cuisine": "Mediterranean",
    "neighborhood": "Hampden",
    "website": "https://cypriana.com/",
    "lat": 39.3361868,
    "lon": -76.6215818,
    "program": "chase"
  },
  {
    "name": "Stage Kitchen & Bar - Boca",
    "address": "5377 Town Center Rd suite 200, Boca Raton, FL 33486, USA",
    "city": "West Palm Beach",
    "cuisine": "American",
    "neighborhood": "Boca Raton",
    "website": "https://www.stagekitchenandbar.com/",
    "lat": 26.364174199999997,
    "lon": -80.1285243,
    "program": "chase"
  },
  {
    "name": "The Butcher's Club at PGA National Resort",
    "address": "400 Ave of the Champions, Palm Beach Gardens, FL 33418, USA",
    "city": "West Palm Beach",
    "cuisine": "Steak",
    "neighborhood": "Palm Beach Gardens",
    "website": "https://www.pgaresort.com/dining/the-butchers-club/?utm_source=google&utm_medium=listing&utm_campaign=google_business",
    "lat": 26.8291069,
    "lon": -80.14112279999999,
    "program": "chase"
  },
  {
    "name": "Nicholson Muir Meats",
    "address": "480 E Ocean Ave, Boynton Beach, FL 33435, USA",
    "city": "West Palm Beach",
    "cuisine": "Steakhouse",
    "neighborhood": "Boynton Beach",
    "website": "http://nicholsonmuir.com/",
    "lat": 26.526980299999998,
    "lon": -80.0596169,
    "program": "chase"
  },
  {
    "name": "Taki Omakase - Delray",
    "address": "632 E Atlantic Ave, Delray Beach, FL 33483, USA",
    "city": "West Palm Beach",
    "cuisine": "Sushi",
    "neighborhood": "Delray Beach",
    "website": "https://takiomakase.com/delray/?utm_source=GBP&utm_medium=organic-traffic",
    "lat": 26.461474,
    "lon": -80.06643799999999,
    "program": "chase"
  }
]