name,city,state,country,address,website,lat,lon,place_id,google_maps_url,google_name
Alternate Ending Beer Co.,Aberdeen Township,NJ,USA,"1057 NJ-34, Aberdeen Township, NJ 07747, USA",http://www.aebeer.com/,40.4015884,-74.2281789,ChIJE7Fx-AjNw4kRno1LYx6sk7w,https://maps.google.com/?cid=13588393747221810590&g_mp=Cidnb29nbGUubWFwcy5wbGFjZXMudjEuUGxhY2VzLlNlYXJjaFRleHQQAhgEIAA,Alternate Ending Beer Co.
Lita,Aberdeen Township,NJ,USA,"1055 NJ-34, Aberdeen Township, NJ 07747, USA",http://thelovelylita.com/,40.4015722,-74.228525,ChIJ6Z4HnSnNw4kRG-FyEf5bg90,https://maps.google.com/?cid=15961702651103731995&g_mp=Cidnb29nbGUubWFwcy5wbGFjZXMudjEuUGxhY2VzLlNlYXJjaFRleHQQAhgEIAA,Lita
Big Country Beer Garden,Abilene,TX,USA,"806 S 2nd St, Abilene, TX 79602, USA",https://www.bigcountrybeergarden.com/,32.44763,-99.731585,ChIJ2UjEwBGPVoYRdV06qSqNJtM,https://maps.google.com/?cid=15215003605485116789&g_mp=Cidnb29nbGUubWFwcy5wbGFjZXMudjEuUGxhY2VzLlNlYXJjaFRleHQQAhgEIAA,The Big Country Beer Garden
Cork and Pig,Abilene,TX,USA,"2467 N Judge Ely Blvd, Abilene, TX 79601, USA",https://www.corkandpig.com/,32.4766181,-99.7066774,ChIJRbhe46-RVoYRhUiqEODQFJ8,https://maps.google.com/?cid=11463016612335601797&g_mp=Cidnb29nbGUubWFwcy5wbGFjZXMudjEuUGxhY2VzLlNlYXJjaFRleHQQAhgEIAA,"Cork And Pig Tavern Allen Ridge, Abilene"
Perini Ranch Steakhouse,Abilene,TX,USA,"3002 FM 89, Buffalo Gap, TX 79508, USA",http://www.periniranch.com/,32.2716559,-99.8440118,ChIJ4YxxYUb0VoYRVzT_Nne_U4o,https://maps.google.com/?cid=9967520919045747799&g_mp=Cidnb29nbGUubWFwcy5wbGFjZXMudjEuUGxhY2VzLlNlYXJjaFRleHQQAhgEIAA,Perini Ranch Steakhouse
Taylor County Taphouse,Abilene,TX,USA,"4002 Catclaw Dr, Abilene, TX 79606, USA",http://www.taylorcountytaphouse.com/,32.4031351,-99.7747308,ChIJbWFDl0mMVoYRDkDIoyAH2lU,https://maps.google.com/?cid=6186264874914955278&g_mp=Cidnb29nbGUubWFwcy5wbGFjZXMudjEuUGxhY2VzLlNlYXJjaFRleHQQAhgEIAA,Taylor County Taphouse
Inness,Accord,NY,USA,"10 Bank St, Accord, NY 12404, USA",https://inness.co/eat-drink/?utm_source=gmb&utm_medium=organic,41.7977455,-74.2305371,ChIJo-Cl1ULh3IkRSdvrAHgOYTs,https://maps.google.com/?cid=4278717029553003337&g_mp=Cidnb29nbGUubWFwcy5wbGFjZXMudjEuUGxhY2VzLlNlYXJjaFRleHQQAhgEIAA,The Restaurant at INNESS
Myrth,Ada Township,MI,USA,"7423 River St SE, Ada, MI 49301, USA",https://www.myrthada.com/,42.9545299,-85.48472,ChIJRdo-j51RGIgRt4eYT18W68c,https://maps.google.com/?cid=14405632431687763895&g_mp=Cidnb29nbGUubWFwcy5wbGFjZXMudjEuUGxhY2VzLlNlYXJjaFRleHQQAhgEIAA,Myrth
Greenway Table & Tap,Addison Il,IL,USA,"900 N Wood Dale Rd, Addison, IL 60101, USA",https://dupagegolf.com/greenway-tap/,41.9451889,-87.9789621,ChIJdTRUZw2zD4gRMo89BsAgG0c,https://maps.google.com/?cid=5123725010174578482&g_mp=Cidnb29nbGUubWFwcy5wbGFjZXMudjEuUGxhY2VzLlNlYXJjaFRleHQQAhgEIAA,Greenway Table & Tap
Malia's Restaurant,Aiken,SC,USA,"120 Laurens St SW, Aiken, SC 29801, USA",http://www.maliasrestaurant.com/,33.560732,-81.722454,ChIJRb5xjAhN-IgRcDi3pBentz4,https://maps.google.com/?cid=4519264471079139440&g_mp=Cidnb29nbGUubWFwcy5wbGFjZXMudjEuUGxhY2VzLlNlYXJjaFRleHQQAhgEIAA,Malia's
The Wildemount,Aiken,SC,USA,"200 Park Ave SW, Aiken, SC 29801, USA",https://thewildemountrestaurant.com/,33.5594615,-81.721718,ChIJIxKBlhRN-IgRxUvsnAat2FE,https://maps.google.com/?cid=5897653955955805125&g_mp=Cidnb29nbGUubWFwcy5wbGFjZXMudjEuUGxhY2VzLlNlYXJjaFRleHQQAhgEIAA,The Wildemount
RSVP New York,Airmont Ny,NY,USA,"221 NY-59, Airmont, NY 10901, USA",http://rsvpny.com/,41.1114679,-74.1130535,ChIJw7pb7yLnwokRF62MVfLcYeg,https://maps.google.com/?cid=16744907822915693847&g_mp=Cidnb29nbGUubWFwcy5wbGFjZXMudjEuUGxhY2VzLlNlYXJjaFRleHQQAhgEIAA,RSVP New York
Cilantro Thai & Sushi Restaurant,Akron,OH,USA,"326 S Main St #1204, Akron, OH 44308, USA",http://www.cilantrothai.com/,41.0770778,-81.5220127,ChIJ9_AvzyXWMIgRN9Nf-r8BKeI,https://maps.google.com/?cid=16296558650667815735&g_mp=Cidnb29nbGUubWFwcy5wbGFjZXMudjEuUGxhY2VzLlNlYXJjaFRleHQQAhgEIAA,Cilantro Thai & Sushi Restaurant
Ken Stewart's Grille,Akron,OH,USA,"1970 W Market St, Akron, OH 44313, USA",https://www.kenstewartsgrille.com/,41.1133044,-81.5786112,ChIJezjXKmvXMIgRqRc7vnhB9AU,https://maps.google.com/?cid=429039851350464425&g_mp=Cidnb29nbGUubWFwcy5wbGFjZXMudjEuUGxhY2VzLlNlYXJjaFRleHQQAhgEIAA,Ken Stewart's Grille
Pasta Pelican Inc.,Alameda,CA,USA,"2455 Mariner Square Dr, Alameda, CA 94501, USA",https://www.pastapelican.com/,37.7915238,-122.2774623,ChIJz0oj-8WAj4AR-Nw-wbd02hQ,https://maps.google.com/?cid=1502641758251441400&g_mp=Cidnb29nbGUubWFwcy5wbGFjZXMudjEuUGxhY2VzLlNlYXJjaFRleHQQAhgEIAA,Pasta Pelican Restaurant
Saltbreaker,Alameda,CA,USA,"2350 Saratoga St k11, Alameda, CA 94501, USA",https://www.saltbreakeralameda.com/,37.7840011,-122.3019458,ChIJNUKzKcuBj4AR0u8eHvZOtBQ,https://maps.google.com/?cid=1491904195540742098&g_mp=Cidnb29nbGUubWFwcy5wbGFjZXMudjEuUGxhY2VzLlNlYXJjaFRleHQQAhgEIAA,Saltbreaker
Yonsei Handrolls - Albany,Albany Ca,CA,USA,"905 CA-123, Albany, CA 94706, USA",https://www.yonseihandrolls.com/,37.8900092,-122.2986899,ChIJ-0_eLwB5hYAR4auTiQDpd_A,https://maps.google.com/?cid=17327574279848700897&g_mp=Cidnb29nbGUubWFwcy5wbGFjZXMudjEuUGxhY2VzLlNlYXJjaFRleHQQAhgEIAA,Yonsei Handrolls - Albany
Fin and Feathers Albany,Albany,GA,USA,"2800 Old Dawson Rd, Albany, GA 31707, USA",http://finandfeathersrestaurants.com/,31.6122373,-84.2171756,ChIJIw-bBSl98ogRq-3joIwAl5Y,https://maps.google.com/?cid=10851142431167212971&g_mp=Cidnb29nbGUubWFwcy5wbGFjZXMudjEuUGxhY2VzLlNlYXJjaFRleHQQAhgEIAA,Fin & Feathers Restaurants
Chez Mike,Albany,NY,USA,"596 Columbia Turnpike, East Greenbush, NY 12061, USA",https://www.chezmikerestaurant.com/,42.5974389,-73.7114565,ChIJzbq7HF3i3YkRmlN-cBpvpmI,https://maps.google.com/?cid=7108491221198066586&g_mp=Cidnb29nbGUubWFwcy5wbGFjZXMudjEuUGxhY2VzLlNlYXJjaFRleHQQAhgEIAA,Chez Mike
Dinosaur Bar-B-Que Troy,Albany,NY,USA,"377 River St, Troy, NY 12180, USA",https://dinosaurbarbque.com/locations/troy,42.7345623,-73.6892422,ChIJm0I2GKYP3okRmnb0byFKApY,https://maps.google.com/?cid=10809283563115280026&g_mp=Cidnb29nbGUubWFwcy5wbGFjZXMudjEuUGxhY2VzLlNlYXJjaFRleHQQAhgEIAA,Dinosaur Bar-B-Que
Hattie's Culinary Lab,Albany,NY,USA,"121 Madison Ave, Albany, NY 12202, USA",https://theculinarylab.org/,42.646043,-73.7551927,ChIJUU6KcwAL3okRAiP4qzRe_Qg,https://maps.google.com/?cid=647777501727695618&g_mp=Cidnb29nbGUubWFwcy5wbGFjZXMudjEuUGxhY2VzLlNlYXJjaFRleHQQAhgEIAA,Hattie's Culinary Lab Powered By the SEAT Center
Itameshi,Albany,NY,USA,"745 Broadway, Albany, NY 12207, USA",https://itameshialbany.com/,42.6561982,-73.7484252,ChIJi8aGfcAL3okRjBSoyLVVYPo,https://maps.google.com/?cid=18041514346490107020&g_mp=Cidnb29nbGUubWFwcy5wbGFjZXMudjEuUGxhY2VzLlNlYXJjaFRleHQQAhgEIAA,Itameshi
Korner Bar & Grille,Albany,NY,USA,"1770 Central Ave, Colonie, NY 12205, USA",https://kornerbargrille.com/,42.7278844,-73.8458594,ChIJ_eBtcRdz3okRyNOl9nMMwjA,https://maps.google.com/?cid=3513384351501243336&g_mp=Cidnb29nbGUubWFwcy5wbGFjZXMudjEuUGxhY2VzLlNlYXJjaFRleHQQAhgEIAA,Korner Bar & Grille
MOSU,Albany,NY,USA,"111 Wolf Rd Suite 1, Albany, NY 12205, USA",http://www.eatmosu.com/,42.7168642,-73.8082799,ChIJbwX4mnUN3okRl_RO0otpKuw,https://maps.google.com/?cid=17017530191222600855&g_mp=Cidnb29nbGUubWFwcy5wbGFjZXMudjEuUGxhY2VzLlNlYXJjaFRleHQQAhgEIAA,MOSU
Nicoles Restaurant,Albany,NY,USA,"556 Delaware Ave, Albany, NY 12209, USA",https://www.nicolesofalbany.com/,42.6382196,-73.7889905,ChIJqSfUgXwK3okRxRSucuzqDs4,https://maps.google.com/?cid=14848063322744296645&g_mp=Cidnb29nbGUubWFwcy5wbGFjZXMudjEuUGxhY2VzLlNlYXJjaFRleHQQAhgEIAA,Nicole's Restaurant
The Den,Albany,NY,USA,"544 Delaware Ave, Albany, NY 12209, USA",https://www.thedenalbany.com/,42.6383126,-73.7886823,ChIJTbl-xEgL3okR4LI--7uADU0,https://maps.google.com/?cid=5552235460480119520&g_mp=Cidnb29nbGUubWFwcy5wbGFjZXMudjEuUGxhY2VzLlNlYXJjaFRleHQQAhgEIAA,The Den
The Loft @205,Albany,NY,USA,"205 Lark St 2nd floor, Albany, NY 12210, USA",http://www.theloftonlark.com/,42.6560627,-73.7643106,ChIJBfWYgBsL3okRmi89y5MoxZI,https://maps.google.com/?cid=10575903915184566170&g_mp=Cidnb29nbGUubWFwcy5wbGFjZXMudjEuUGxhY2VzLlNlYXJjaFRleHQQAhgEIAA,The Loft @205
The Ledford House,Albion,CA,USA,"3000 CA-1, Albion, CA 95410, USA",http://www.ledfordhouse.com/,39.2194291,-123.7706798,ChIJybO122GrgYARmgyEC7-UdKM,https://maps.google.com/?cid=11778202473733557402&g_mp=Cidnb29nbGUubWFwcy5wbGFjZXMudjEuUGxhY2VzLlNlYXJjaFRleHQQAhgEIAA,Ledford House
3128 Social House,Albuquerque,NM,USA,"3128 Central Ave SE, Albuquerque, NM 87106, USA",https://linktr.ee/3128socialhouse,35.0803375,-106.6096789,ChIJA4Nw8uALIocR7vvoR4Gnt8s,https://maps.google.com/?cid=14679385684136492014&g_mp=Cidnb29nbGUubWFwcy5wbGFjZXMudjEuUGxhY2VzLlNlYXJjaFRleHQQAhgEIAA,3128 Social House
Daydream,Albuquerque,NM,USA,"3123 Central Ave NE D Downstairs, Albuquerque, NM 87106, USA",http://www.daydreamrumbar.com/,35.0809809,-106.6098294,ChIJ77pdHVELIocRTM7lCCTs1YE,https://maps.google.com/?cid=9355643440444329548&g_mp=Cidnb29nbGUubWFwcy5wbGFjZXMudjEuUGxhY2VzLlNlYXJjaFRleHQQAhgEIAA,Daydream Rum Bar
Ex Novo,Albuquerque,NM,USA,"701 Central Ave NW, Albuquerque, NM 87102, USA",https://www.exnovobrew.com/,35.0854544,-106.6552406,ChIJOws0BloNIocRDNT-dddQQ9k,https://maps.google.com/?cid=15655445615997801484&g_mp=Cidnb29nbGUubWFwcy5wbGFjZXMudjEuUGxhY2VzLlNlYXJjaFRleHQQAhgEIAA,Ex Novo Brewing Company
Farm & Table,Albuquerque,NM,USA,"8917 4th St NW, Albuquerque, NM 87114, USA",http://www.farmandtablenm.com/,35.1834227,-106.6237587,ChIJb8h4pAZ0IocRrtKMLEVw2c0,https://maps.google.com/?cid=14833010290123920046&g_mp=Cidnb29nbGUubWFwcy5wbGFjZXMudjEuUGxhY2VzLlNlYXJjaFRleHQQAhgEIAA,Farm & Table
Piatanzi,Albuquerque,NM,USA,"1403 Girard Blvd NE, Albuquerque, NM 87106, USA",http://www.piatanzi.com/,35.0984917,-106.6132793,ChIJWVnr7k4LIocRhJu9Gs6ezdA,https://maps.google.com/?cid=15045856538163780484&g_mp=Cidnb29nbGUubWFwcy5wbGFjZXMudjEuUGxhY2VzLlNlYXJjaFRleHQQAhgEIAA,Piatanzi
The Artichoke Cafe,Albuquerque,NM,USA,"424 Central Ave SE, Albuquerque, NM 87102, USA",https://www.artichokecafe.com/,35.0832124,-106.6424505,ChIJozuc4LwMIocR86lRyrIg4bU,https://maps.google.com/?cid=13105792342895471091&g_mp=Cidnb29nbGUubWFwcy5wbGFjZXMudjEuUGxhY2VzLlNlYXJjaFRleHQQAhgEIAA,The Artichoke Cafe
The Copper Lounge/Los Conejos,Albuquerque,NM,USA,"1504 Central Ave SE, Albuquerque, NM 87106, USA",https://www.copperloungeabq.com/conejos-home,35.0815569,-106.6299951,ChIJ9SpjsbsNIocRPUhXCrCP_Fw,https://maps.google.com/?cid=6700388331870963773&g_mp=Cidnb29nbGUubWFwcy5wbGFjZXMudjEuUGxhY2VzLlNlYXJjaFRleHQQAhgEIAA,Los Conejos
The County Line Albuquerque,Albuquerque,NM,USA,"9600 Tramway Blvd NE, Albuquerque, NM 87122, USA",http://www.countyline.com/,35.1899315,-106.4954984,ChIJFbPEwmaeGIcRAqzq2hcQmxU,https://maps.google.com/?cid=1556855790829743106&g_mp=Cidnb29nbGUubWFwcy5wbGFjZXMudjEuUGxhY2VzLlNlYXJjaFRleHQQAhgEIAA,County Line Barbeque of Albuquerque
Alice Cocktail Bar,Alexandria,VA,USA,"724 King St, Alexandria, VA 22314, USA",,38.8050686,-77.0478881,ChIJuaV849ext4kR6Vpfkvfqheg,https://maps.google.com/?cid=16755056337735342825&g_mp=Cidnb29nbGUubWFwcy5wbGFjZXMudjEuUGxhY2VzLlNlYXJjaFRleHQQAhgEIAA,Alice Comfort Cocktail
Captain Gregory's,Alexandria,VA,USA,"804 N Henry St, Alexandria, VA 22314, USA",http://www.captaingregorys.com/,38.8138712,-77.0497449,ChIJMxVlaPuwt4kRt6Dhl_6vxk4,https://maps.google.com/?cid=5676417888351789239&g_mp=Cidnb29nbGUubWFwcy5wbGFjZXMudjEuUGxhY2VzLlNlYXJjaFRleHQQAhgEIAA,Captain Gregory's
Chadwicks,Alexandria,VA,USA,"203 Strand St, Alexandria, VA 22314, USA",https://www.chadwicksoldtown.com/,38.802791,-77.0400341,ChIJRVUjmfmxt4kRN0k5XMzqg8Y,https://maps.google.com/?cid=14304535004900313399&g_mp=Cidnb29nbGUubWFwcy5wbGFjZXMudjEuUGxhY2VzLlNlYXJjaFRleHQQAhgEIAA,Chadwicks
City Kitchen,Alexandria,VA,USA,"330 S Pickett St, Alexandria, VA 22304, USA",https://www.fatcitykitchen.com/,38.8079537,-77.1236988,ChIJi_qCdjayt4kR2rB4kp47hOA,https://maps.google.com/?cid=16178121313669918938&g_mp=Cidnb29nbGUubWFwcy5wbGFjZXMudjEuUGxhY2VzLlNlYXJjaFRleHQQAhgEIAA,City Kitchen
Continues Arcade,Alexandria,VA,USA,"1050 N Fayette St, Alexandria, VA 22314, USA",https://www.continuesarcade.com/,38.8166949,-77.0502909,ChIJeRkRJgCxt4kRmindq8ZHgL4,https://maps.google.com/?cid=13727050582837766554&g_mp=Cidnb29nbGUubWFwcy5wbGFjZXMudjEuUGxhY2VzLlNlYXJjaFRleHQQAhgEIAA,Continues Arcade
Don Taco,Alexandria,VA,USA,"808 King St, Alexandria, VA 22314, USA",https://dontacova.com/,38.805096,-77.048502,ChIJi_kpg_iwt4kR7uFaLEIbStk,https://maps.google.com/?cid=15657357025532895726&g_mp=Cidnb29nbGUubWFwcy5wbGFjZXMudjEuUGxhY2VzLlNlYXJjaFRleHQQAhgEIAA,Don Taco
Epicure on King,Alexandria,VA,USA,"703 King St, Alexandria, VA 22314, USA",https://www.epicureonking.com/,38.8053084,-77.047204,ChIJu5NOq1ewt4kRLQZszThl4mU,https://maps.google.com/?cid=7341541637206312493&g_mp=Cidnb29nbGUubWFwcy5wbGFjZXMudjEuUGxhY2VzLlNlYXJjaFRleHQQAhgEIAA,Epicure on King
Hank's Oyster Bar - Alexandria,Alexandria,VA,USA,"818 N St Asaph St, Alexandria, VA 22314, USA",https://hanksoysterbar.com/old-town,38.813862,-77.0440308,ChIJfQrUVv-wt4kRVZJpJQaRG5Y,https://maps.google.com/?cid=10816398385643885141&g_mp=Cidnb29nbGUubWFwcy5wbGFjZXMudjEuUGxhY2VzLlNlYXJjaFRleHQQAhgEIAA,"Hank's Oyster Bar, Old Town"
Hummingbird Bar + Kitchen,Alexandria,VA,USA,"220 S Union St, Alexandria, VA 22314, USA",https://www.hummingbirdva.net/,38.8022524,-77.040516,ChIJ7_1ww1iwt4kRX6IYfCAyEiI,https://maps.google.com/?cid=2455079861972673119&g_mp=Cidnb29nbGUubWFwcy5wbGFjZXMudjEuUGxhY2VzLlNlYXJjaFRleHQQAhgEIAA,Hummingbird Bar and Kitchen
Linjee Thai,Alexandria,VA,USA,"6244-K Little River Turnpike, Alexandria, VA 22312, USA",https://linjeethai.com/?utm_source=google,38.8188251,-77.1423146,ChIJvYqsiWCzt4kR0tFrp4TPTnU,https://maps.google.com/?cid=8452921719272493522&g_mp=Cidnb29nbGUubWFwcy5wbGFjZXMudjEuUGxhY2VzLlNlYXJjaFRleHQQAhgEIAA,Linjee Thai
Mama Chang,Alexandria,VA,USA,"3251 Blenheim Blvd ste101, Fairfax, VA 22030, USA",https://www.mamachangva.com/,38.8621355,-77.2763412,ChIJoZMdk9xNtokRIOqcoGu-xGA,https://maps.google.com/?cid=6972907492541786656&g_mp=Cidnb29nbGUubWFwcy5wbGFjZXMudjEuUGxhY2VzLlNlYXJjaFRleHQQAhgEIAA,Mama Chang
Nasime,Alexandria,VA,USA,"1209 King St, Alexandria, VA 22314, USA",http://nasimerestaurant.com/,38.8059348,-77.0528647,ChIJU0q0ev-wt4kRACSJ1HaxyAc,https://maps.google.com/?cid=560893277537641472&g_mp=Cidnb29nbGUubWFwcy5wbGFjZXMudjEuUGxhY2VzLlNlYXJjaFRleHQQAhgEIAA,Nasime Japanese Restaurant
Ramparts Tavern,Alexandria,VA,USA,"1700 Fern St, Alexandria, VA 22302, USA",http://www.rampartstavern.com/,38.829414,-77.0848219,ChIJuRFdB2qxt4kRRbnGopHwhTI,https://maps.google.com/?cid=3640580382090770757&g_mp=Cidnb29nbGUubWFwcy5wbGFjZXMudjEuUGxhY2VzLlNlYXJjaFRleHQQAhgEIAA,Ramparts Tavern & Grill
Revel,Alexandria,VA,USA,"1600 Belle View Blvd, Alexandria, VA 22307, USA",https://www.revelava.com/,38.7761187,-77.0597265,ChIJubW3CGext4kRZMYfcse0ses,https://maps.google.com/?cid=16983554438497027684&g_mp=Cidnb29nbGUubWFwcy5wbGFjZXMudjEuUGxhY2VzLlNlYXJjaFRleHQQAhgEIAA,Revel Restaurant
River Bend Bistro,Alexandria,VA,USA,"7966 Fort Hunt Rd, Alexandria, VA 22308, USA",http://riverbendbistro.com/,38.7411173,-77.0562215,ChIJ_9h41rSvt4kRzur4VqAzk_U,https://maps.google.com/?cid=17695544124615748302&g_mp=Cidnb29nbGUubWFwcy5wbGFjZXMudjEuUGxhY2VzLlNlYXJjaFRleHQQAhgEIAA,River Bend Bistro & Wine Bar
T.J. Stone's,Alexandria,VA,USA,"608 Montgomery St, Alexandria, VA 22314, USA",http://www.tjstones.com/,38.8139364,-77.0443493,ChIJa-aMD_Cwt4kR8IyBzZXRSkA,https://maps.google.com/?cid=4632745608032128240&g_mp=Cidnb29nbGUubWFwcy5wbGFjZXMudjEuUGxhY2VzLlNlYXJjaFRleHQQAhgEIAA,T.J. Stone's
Thompson Italian - Alexandria,Alexandria,VA,USA,"1024 King St, Alexandria, VA 22314, USA",http://thompsonitalian.com/,38.805372,-77.051188,ChIJr7xeWKqxt4kRMhQ9QB2qOJQ,https://maps.google.com/?cid=10680473558917649458&g_mp=Cidnb29nbGUubWFwcy5wbGFjZXMudjEuUGxhY2VzLlNlYXJjaFRleHQQAhgEIAA,Thompson Italian
Union Street Public House,Alexandria,VA,USA,"121 S Union St, Alexandria, VA 22314, USA",https://www.unionstreetpublichouse.com/,38.803471,-77.0405539,ChIJgciMoliwt4kRYPamn0WErbQ,https://maps.google.com/?cid=13019207532364101216&g_mp=Cidnb29nbGUubWFwcy5wbGFjZXMudjEuUGxhY2VzLlNlYXJjaFRleHQQAhgEIAA,Union Street Public House
Vaso's Mediterranean Bistro,Alexandria,VA,USA,"1118 King St, Alexandria, VA 22314, USA",http://vasosonking.com/,38.8056455,-77.0521738,ChIJmamTYP-wt4kR81jOT_gXMl4,https://maps.google.com/?cid=6787513943659010291&g_mp=Cidnb29nbGUubWFwcy5wbGFjZXMudjEuUGxhY2VzLlNlYXJjaFRleHQQAhgEIAA,Vaso's Mediterranean Bistro
Bread Winners Cafe & Bakery - Allen,Allen,TX,USA,"916 Garden Park Dr, Allen, TX 75013, USA",https://breadwinnerscafe.com/,33.0882497,-96.6841936,ChIJGUR2dQAXTIYRS1nu1Fpn5C4,https://maps.google.com/?cid=3378939260251822411&g_mp=Cidnb29nbGUubWFwcy5wbGFjZXMudjEuUGxhY2VzLlNlYXJjaFRleHQQAhgEIAA,Bread Winners Cafe & Bakery
Peppino's Pizzeria & Sports Grille,Allendale Mi,MI,USA,"5065 Lake Michigan Dr, Allendale, MI 49401, USA",http://www.peppinospizza.com/,42.9728725,-85.9110584,ChIJ2X3gI5OiGYgRy3p0-AP5Tsw,https://maps.google.com/?cid=14721978027369331403&g_mp=Cidnb29nbGUubWFwcy5wbGFjZXMudjEuUGxhY2VzLlNlYXJjaFRleHQQAhgEIAA,Peppino's Pizzeria & Sports Grille
Allendale Social,Allendale,NJ,USA,"9 Franklin Turnpike, Allendale, NJ 07401, USA",https://allendalesocial.com/,41.0205465,-74.123239,ChIJ9ZIhsFnlwokRKRE1A0W_yFw,https://maps.google.com/?cid=6685803949958959401&g_mp=Cidnb29nbGUubWFwcy5wbGFjZXMudjEuUGxhY2VzLlNlYXJjaFRleHQQAhgEIAA,Allendale Social
Allendale Steak House,Allendale,NJ,USA,"90 W Allendale Ave, Allendale, NJ 07401, USA",http://allendalesteakhouse.com/,41.0307868,-74.1291087,ChIJ-wzHaIvjwokRweB5JUTlquM,https://maps.google.com/?cid=16405176673499734209&g_mp=Cidnb29nbGUubWFwcy5wbGFjZXMudjEuUGxhY2VzLlNlYXJjaFRleHQQAhgEIAA,Allendale Steakhouse
Morning Bloom,Allendale,NJ,USA,"95 W Allendale Ave, Allendale, NJ 07401, USA",https://morning-bloom.com/,41.0304653,-74.1292577,ChIJr4-aaE3jwokRFMIrTqDhWsk,https://maps.google.com/?cid=14509157228149981716&g_mp=Cidnb29nbGUubWFwcy5wbGFjZXMudjEuUGxhY2VzLlNlYXJjaFRleHQQAhgEIAA,Morning Bloom Breakfast and Lunch
Uno Mas,Allendale,NJ,USA,"99 W Allendale Ave, Allendale, NJ 07401, USA",https://www.unomasallendale.com/,41.0304817,-74.1293867,ChIJL9eJEMPjwokRX016Myc79Vw,https://maps.google.com/?cid=6698325060336897375&g_mp=Cidnb29nbGUubWFwcy5wbGFjZXMudjEuUGxhY2VzLlNlYXJjaFRleHQQAhgEIAA,Uno Mas
The Reef Club,Allenhurst Nj,NJ,USA,"1A Allen Ave, Allenhurst, NJ 07711, USA",https://www.thereefclub.com/,40.234716,-73.9961617,ChIJk1V9MpInwokR2wZK6kc0aJo,https://maps.google.com/?cid=11126200362896852699&g_mp=Cidnb29nbGUubWFwcy5wbGFjZXMudjEuUGxhY2VzLlNlYXJjaFRleHQQAhgEIAA,The Reef Club Of Allenhurst
Árdana Food & Drink Warrington,Allentown,PA,USA,"233 Hamilton St, Allentown, PA 18101, USA",http://sarandongalatinbistropa.com/,40.6056975,-75.4616315,ChIJiVv9prE5xIkRK2E75bxnMgY,https://maps.google.com/?cid=446533374060486955&g_mp=Cidnb29nbGUubWFwcy5wbGFjZXMudjEuUGxhY2VzLlNlYXJjaFRleHQQAhgEIAA,Sarandonga
Bolete,Allentown,PA,USA,"1740 Seidersville Rd, Bethlehem, PA 18015, USA",http://www.boleterestaurant.com/,40.5946965,-75.4118034,ChIJhabH26E-xIkRLS3iPC8kq7o,https://maps.google.com/?cid=13450884497375636781&g_mp=Cidnb29nbGUubWFwcy5wbGFjZXMudjEuUGxhY2VzLlNlYXJjaFRleHQQAhgEIAA,Bolete
Boulder View Tavern,Allentown,PA,USA,"123 Lake Harmony Rd, Lake Harmony, PA 18624, USA",https://www.boulderviewtavern.com/,41.0516616,-75.5848264,ChIJv8vNoxf5xIkRVdMogLg4U4c,https://maps.google.com/?cid=9751199983262552917&g_mp=Cidnb29nbGUubWFwcy5wbGFjZXMudjEuUGxhY2VzLlNlYXJjaFRleHQQAhgEIAA,Boulder View Tavern
KC Prime Restaurant Steakhouse - Warrington,Allentown,PA,USA,"1580 Easton Rd, Warrington, PA 18976, USA",http://kcprimewarrington.com/,40.2640753,-75.1315046,ChIJS5-VEb-oxokRTdAJYhh_INk,https://maps.google.com/?cid=15645644848185856077&g_mp=Cidnb29nbGUubWFwcy5wbGFjZXMudjEuUGxhY2VzLlNlYXJjaFRleHQQAhgEIAA,KC Prime
Little Orchids Kitchen & Bar,Allentown,PA,USA,"640 N West End Blvd, Quakertown, PA 18951, USA",https://littleorchidsknb.com/,40.4605037,-75.3720284,ChIJt655aO8jxIkRFPopS081nRw,https://maps.google.com/?cid=2061862819085285908&g_mp=Cidnb29nbGUubWFwcy5wbGFjZXMudjEuUGxhY2VzLlNlYXJjaFRleHQQAhgEIAA,Little Orchids Kitchen and Bar
Notch Modern Kitchen & Bar,Allentown,PA,USA,"5036 Hamilton Blvd, Allentown, PA 18106, USA",http://www.notchmknb.com/,40.5653035,-75.5554345,ChIJSeEjol4wxIkRMw5TTXPG8Ek,https://maps.google.com/?cid=5327976557700124211&g_mp=Cidnb29nbGUubWFwcy5wbGFjZXMudjEuUGxhY2VzLlNlYXJjaFRleHQQAhgEIAA,Notch Modern Kitchen & Bar
Pennsylvania Rye Company,Allentown,PA,USA,"536 Hamilton St, Allentown, PA 18101, USA",http://www.paryeco.com/,40.6026682,-75.4691195,ChIJzbUPIYY5xIkRgwOOPbtAXZA,https://maps.google.com/?cid=10402541887231492995&g_mp=Cidnb29nbGUubWFwcy5wbGFjZXMudjEuUGxhY2VzLlNlYXJjaFRleHQQAhgEIAA,Pennsylvania Rye Company
Simpatico,Allentown,PA,USA,"27 N 7th St, Allentown, PA 18101, USA",http://www.simpaticopasta.com/,40.6030992,-75.4718427,ChIJvQAySc45xIkRfY5-3HLlGd0,https://maps.google.com/?cid=15932017438288154237&g_mp=Cidnb29nbGUubWFwcy5wbGFjZXMudjEuUGxhY2VzLlNlYXJjaFRleHQQAhgEIAA,Simpatico
Tacos Y Tequila City Center,Allentown,PA,USA,"530 Hamilton St, Allentown, PA 18101, USA",https://tacosytequilaallentown.com/,40.6028126,-75.4690657,ChIJ-Sbak_05xIkRon9ak-arSFs,https://maps.google.com/?cid=6577696262577618850&g_mp=Cidnb29nbGUubWFwcy5wbGFjZXMudjEuUGxhY2VzLlNlYXJjaFRleHQQAhgEIAA,Tacos Y Tequila Allentown
The Bayou Bethlehem,Allentown,PA,USA,"702 Hawthorne Rd, Bethlehem, PA 18018, USA",https://datbayoulv.com/?utm_source=google,40.623047,-75.3646082,ChIJGcuBfTU-xIkR288AVgFfQA8,https://maps.google.com/?cid=1098982768420900827&g_mp=Cidnb29nbGUubWFwcy5wbGFjZXMudjEuUGxhY2VzLlNlYXJjaFRleHQQAhgEIAA,The Bayou
The Shelby,Allentown,PA,USA,"707 N Krocks Rd, Allentown, PA 18106, USA",http://theshelbyrestaurant.com/,40.5658892,-75.5622239,ChIJ50DH-FkwxIkRr_AG67Wl51U,https://maps.google.com/?cid=6190098413594800303&g_mp=Cidnb29nbGUubWFwcy5wbGFjZXMudjEuUGxhY2VzLlNlYXJjaFRleHQQAhgEIAA,The Shelby
Youell's Oyster House,Allentown,PA,USA,"2249 Walnut St, Allentown, PA 18104, USA",https://youellsoysterhouse.com/,40.591908,-75.5040362,ChIJJYP2Zj06xIkR18NJJ4HQTcs,https://maps.google.com/?cid=14649594416034595799&g_mp=Cidnb29nbGUubWFwcy5wbGFjZXMudjEuUGxhY2VzLlNlYXJjaFRleHQQAhgEIAA,Youell's Oyster House
The Alna Store,Alna Me,ME,USA,"2 Dock Rd, Alna, ME 04535, USA",https://www.thealnastore.com/,44.0999704,-69.6145339,ChIJgx8Vt5PtrUwRq2rQAi7ikbk,https://maps.google.com/?cid=13371717455883299499&g_mp=Cidnb29nbGUubWFwcy5wbGFjZXMudjEuUGxhY2VzLlNlYXJjaFRleHQQAhgEIAA,The Alna Store
"Benihana - Alpharetta, GA",Alpharetta,GA,USA,"2365 Mansell Rd, Alpharetta, GA 30022, USA",https://www.benihana.com/,34.037098,-84.3056332,ChIJe_53ayR19YgR6BrG4GKcgeo,https://maps.google.com/?cid=16897959225362619112&g_mp=Cidnb29nbGUubWFwcy5wbGFjZXMudjEuUGxhY2VzLlNlYXJjaFRleHQQAhgEIAA,Benihana - Alpharetta
Fogón and Lions,Alpharetta,GA,USA,"10 Roswell St #100, Alpharetta, GA 30009, USA",https://www.fogonandlions.com/,34.0754538,-84.2962038,ChIJjSk_rHB19YgRfufgpkjiGoY,https://maps.google.com/?cid=9663284752142100350&g_mp=Cidnb29nbGUubWFwcy5wbGFjZXMudjEuUGxhY2VzLlNlYXJjaFRleHQQAhgEIAA,Fogon and Lions
Kona Grill Alpharetta,Alpharetta,GA,USA,"5100 Avalon Blvd, Alpharetta, GA 30009, USA","https://konagrill.com/locations?locations=Alpharetta,30009",34.0714862,-84.2761469,ChIJRRImroZ19YgRIuf_eUYDaMQ,https://maps.google.com/?cid=14152565430241191714&g_mp=Cidnb29nbGUubWFwcy5wbGFjZXMudjEuUGxhY2VzLlNlYXJjaFRleHQQAhgEIAA,Kona Grill - Alpharetta
Lily Sushi Bar - Alpharetta,Alpharetta,GA,USA,"220 S Main St Suite H, Alpharetta, GA 30009, USA",http://lilysushibar.com/,34.0689125,-84.2980185,ChIJNyUwtuV19YgRwbAGxwTqSuI,https://maps.google.com/?cid=16306102707088175297&g_mp=Cidnb29nbGUubWFwcy5wbGFjZXMudjEuUGxhY2VzLlNlYXJjaFRleHQQAhgEIAA,Lily Sushi Bar
Made Kitchen and Cocktails,Alpharetta,GA,USA,"45 Roswell St Suite B, Alpharetta, GA 30009, USA",http://www.madekc.com/,34.0744684,-84.2968833,ChIJrwCPhKR19YgR5aaKOxox594,https://maps.google.com/?cid=16061860584778016485&g_mp=Cidnb29nbGUubWFwcy5wbGFjZXMudjEuUGxhY2VzLlNlYXJjaFRleHQQAhgEIAA,Made Kitchen & Cocktails
Monkey 68 Sushi and Bar - Alpharetta,Alpharetta,GA,USA,"160 N Main St, Alpharetta, GA 30009, USA",http://monkey68sushiandbar.com/,34.0795898,-84.2948989,ChIJ9TvhWa119YgRyV6fsybMSuc,https://maps.google.com/?cid=16666357837632331465&g_mp=Cidnb29nbGUubWFwcy5wbGFjZXMudjEuUGxhY2VzLlNlYXJjaFRleHQQAhgEIAA,Monkey 68 Sushi And Bar
Mozaika Mezze,Alpharetta,GA,USA,"2560 Old Milton Pkwy Suite 120, Alpharetta, GA 30009, USA",https://www.mozaikamezze.com/,34.06959,-84.284,ChIJj8QmRAB19YgRSZK51q6SFuc,https://maps.google.com/?cid=16651657951873438281&g_mp=Cidnb29nbGUubWFwcy5wbGFjZXMudjEuUGxhY2VzLlNlYXJjaFRleHQQAhgEIAA,Mozaika Mezze
Persian Basket Kitchen & Bar,Alpharetta,GA,USA,"2100 Ray Moss Connector, Johns Creek, GA 30022, USA",http://persianbasketatl.com/,34.0459892,-84.2252427,ChIJ726Z57uf9YgR24TfipI0q50,https://maps.google.com/?cid=11361232288971982043&g_mp=Cidnb29nbGUubWFwcy5wbGFjZXMudjEuUGxhY2VzLlNlYXJjaFRleHQQAhgEIAA,Persian Basket Kitchen & Bar
Showdown Social,Alpharetta,GA,USA,"7955 North Point Pkwy, Alpharetta, GA 30022, USA",https://www.showdown.com/,34.0391215,-84.3080629,ChIJ-ySrm5N19YgRKQXz2sO7YqA,https://maps.google.com/?cid=11557006043652490537&g_mp=Cidnb29nbGUubWFwcy5wbGFjZXMudjEuUGxhY2VzLlNlYXJjaFRleHQQAhgEIAA,Showdown Social
TBB 122,Alpharetta,GA,USA,"122 Marietta St, Alpharetta, GA 30009, USA",http://tbb122.com/,34.0726928,-84.2984919,ChIJFaz4z8h19YgRlY0Qkgxuimg,https://maps.google.com/?cid=7532954326999797141&g_mp=Cidnb29nbGUubWFwcy5wbGFjZXMudjEuUGxhY2VzLlNlYXJjaFRleHQQAhgEIAA,TBB 122
Betsy,Altadena Ca,CA,USA,"875 E Mariposa St, Altadena, CA 91001, USA",https://betsyaltadena.com/,34.1881455,-118.1316748,ChIJyROYYDXDwoARx_7TxDXZi6Q,https://maps.google.com/?cid=11856809268941684423&g_mp=Cidnb29nbGUubWFwcy5wbGFjZXMudjEuUGxhY2VzLlNlYXJjaFRleHQQAhgEIAA,Betsy
Farmhouse Tap + Tavern,Altamont,NY,USA,"186 Main St, Altamont, NY 12009, USA",http://www.farmhousetapandtavern.com/,42.7016175,-74.0325746,ChIJF6J0u8Z53okRRRjjtw5r70U,https://maps.google.com/?cid=5039364219009701957&g_mp=Cidnb29nbGUubWFwcy5wbGFjZXMudjEuUGxhY2VzLlNlYXJjaFRleHQQAhgEIAA,Farmhouse Tap + Tavern
Meeting House,Amagansett,NY,USA,"4 Amagansett Square, Amagansett, NY 11930, USA",https://www.meetinghouseamg.com/,40.974282,-72.1419053,ChIJrZkgVae66IkR2HGHO22tVys,https://maps.google.com/?cid=3123155551266501080&g_mp=Cidnb29nbGUubWFwcy5wbGFjZXMudjEuUGxhY2VzLlNlYXJjaFRleHQQAhgEIAA,Meeting House
Dettera Restaurant and Wine Bar,Ambler,PA,USA,"129 E Butler Ave, Ambler, PA 19002, USA",http://www.dettera.com/,40.155146,-75.22115,ChIJ2Q-LqDm7xokRDIL27ZH0dd4,https://maps.google.com/?cid=16029987356294939148&g_mp=Cidnb29nbGUubWFwcy5wbGFjZXMudjEuUGxhY2VzLlNlYXJjaFRleHQQAhgEIAA,Dettera Restaurant & Wine Bar
La Baja,Ambler,PA,USA,"9 N Main St, Ambler, PA 19002, USA",https://www.labajaambler.com/,40.1540823,-75.2240513,ChIJp5_ewMC7xokRdBBC5czM8Ds,https://maps.google.com/?cid=4319177223040012404&g_mp=Cidnb29nbGUubWFwcy5wbGFjZXMudjEuUGxhY2VzLlNlYXJjaFRleHQQAhgEIAA,La Baja
La Provence,Ambler,PA,USA,"27 W Butler Pike, Ambler, PA 19002, USA",http://www.laprovenceambler.com/,40.1535699,-75.2250916,ChIJOyCOWIG7xokRdXYSGXs2OH4,https://maps.google.com/?cid=9095079349804234357&g_mp=Cidnb29nbGUubWFwcy5wbGFjZXMudjEuUGxhY2VzLlNlYXJjaFRleHQQAhgEIAA,La Provence
TRESINI Bar & Cucina,Ambler,PA,USA,"504 N Bethlehem Pike, Ambler, PA 19002, USA",https://www.tresiniambler.com/,40.1708847,-75.2230848,ChIJsxt5gIC7xokRZWpDs1-RruU,https://maps.google.com/?cid=16550325520848611941&g_mp=Cidnb29nbGUubWFwcy5wbGFjZXMudjEuUGxhY2VzLlNlYXJjaFRleHQQAhgEIAA,TRESINI
Isabela,Amenia,NY,USA,"3330 NY-343, Amenia, NY 12501, USA",https://www.isabela-amenia.com/,41.8500644,-73.5537696,ChIJU48k7rx93YkRl3Kx68Ky_GQ,https://maps.google.com/?cid=7276887648171553431&g_mp=Cidnb29nbGUubWFwcy5wbGFjZXMudjEuUGxhY2VzLlNlYXJjaFRleHQQAhgEIAA,Isabela
Panacea,Amenia,NY,USA,"6 Autumn Ln, Amenia, NY 12501, USA",https://www.panaceany.com/,41.8453078,-73.5661474,ChIJR5i0MXp73YkRb1AUhuJOgYQ,https://maps.google.com/?cid=9547999419821215855&g_mp=Cidnb29nbGUubWFwcy5wbGFjZXMudjEuUGxhY2VzLlNlYXJjaFRleHQQAhgEIAA,Panacea
"Benihana - Anaheim, CA",Anaheim,CA,USA,"2100 E Ball Rd, Anaheim, CA 92806, USA",https://www.benihana.com/,33.8177153,-117.887332,ChIJs8sSha_X3IAR4rxBXvHDE-I,https://maps.google.com/?cid=16290579718565117154&g_mp=Cidnb29nbGUubWFwcy5wbGFjZXMudjEuUGxhY2VzLlNlYXJjaFRleHQQAhgEIAA,Benihana - Anaheim
Broken Spirits Anaheim,Anaheim,CA,USA,"549 S Anaheim Blvd, Anaheim, CA 92805, USA",https://www.brokenspiritsdistillery.com/,33.8293385,-117.912164,ChIJO-gHBFvX3IARnh5SopSSoNc,https://maps.google.com/?cid=15537579881504317086&g_mp=Cidnb29nbGUubWFwcy5wbGFjZXMudjEuUGxhY2VzLlNlYXJjaFRleHQQAhgEIAA,Broken Spirits Anaheim
California Vintage Wine Bistro,Anaheim,CA,USA,"1925 S State College Blvd, Anaheim, CA 92805, USA",http://californiavintagewine.com/,33.7992636,-117.8896028,ChIJ__Q3npDX3IARtRuMacKEMb0,https://maps.google.com/?cid=13632823517556513717&g_mp=Cidnb29nbGUubWFwcy5wbGFjZXMudjEuUGxhY2VzLlNlYXJjaFRleHQQAhgEIAA,California Vintage Wine Bistro
"Benihana - Anchorage, AK",Anchorage,AK,USA,"1100 W 8th Ave, Anchorage, AK 99501, USA",https://www.benihana.com/,61.214358,-149.9040927,ChIJqZRXtoG9yFYRZVZgi8zHwgc,https://maps.google.com/?cid=559228985072965221&g_mp=Cidnb29nbGUubWFwcy5wbGFjZXMudjEuUGxhY2VzLlNlYXJjaFRleHQQAhgEIAA,Benihana - Anchorage
Lucy's - University of Alaska Anchorage,Anchorage,AK,USA,"Cuddy Hall, 3400 Seawolf Dr, Anchorage, AK 99508, USA",https://www.uaa.alaska.edu/academics/community-and-technical-college/departments/culinary-arts/lucys/,61.1897459,-149.8322277,ChIJP_dQz6uXyFYRkkxWDPN0qGY,https://maps.google.com/?cid=7397290975188896914&g_mp=Cidnb29nbGUubWFwcy5wbGFjZXMudjEuUGxhY2VzLlNlYXJjaFRleHQQAhgEIAA,Lucy 's at University of Alaska Anchorage
UP On The Roof -- Anderson,Anderson,SC,USA,"214 3rd St, Brooklyn, NY 11215, USA",http://www.wholefoodsmarket.com/stores/thirdand3rd?utm_source=google&utm_medium=organic&utm_campaign=listings,40.6747774,-73.9892143,ChIJhV7tMv9awokRq2HBKBKaAC4,https://maps.google.com/?cid=3314818728528535979&g_mp=Cidnb29nbGUubWFwcy5wbGFjZXMudjEuUGxhY2VzLlNlYXJjaFRleHQQAhgEIAA,The Roof
Black Pearl Ann Arbor,Ann Arbor,MI,USA,"302 S Main St, Ann Arbor, MI 48104, USA",http://blackpearlannarbor.com/,42.2794212,-83.7488981,ChIJK3b_WjyuPIgRYJeutjpr3Xo,https://maps.google.com/?cid=8853350342397433696&g_mp=Cidnb29nbGUubWFwcy5wbGFjZXMudjEuUGxhY2VzLlNlYXJjaFRleHQQAhgEIAA,Black Pearl
Carson's American Bistro,Ann Arbor,MI,USA,"2000 Commonwealth Blvd, Ann Arbor, MI 48105, USA",https://carsonsamericanbistro.com/,42.3045786,-83.6958464,ChIJJ-Cs0BisPIgRu8LL4xjBzNE,https://maps.google.com/?cid=15117670361821070011&g_mp=Cidnb29nbGUubWFwcy5wbGFjZXMudjEuUGxhY2VzLlNlYXJjaFRleHQQAhgEIAA,Carson's American Bistro
Chop House Ann Arbor,Ann Arbor,MI,USA,"322 S Main St, Ann Arbor, MI 48104, USA",https://thechophouserestaurant.com/,42.2788396,-83.7489091,ChIJx0QsYTyuPIgRvk5UHo8eX4E,https://maps.google.com/?cid=9322203353718214334&g_mp=Cidnb29nbGUubWFwcy5wbGFjZXMudjEuUGxhY2VzLlNlYXJjaFRleHQQAhgEIAA,The Chop House Ann Arbor
"FUELD Stir Fry, Poke, and Salad- Ann Arbor",Ann Arbor,MI,USA,"980 W Eisenhower Pkwy Unit A, Ann Arbor, MI 48103, USA",https://www.toasttab.com/fuel-d-food-expansion-2-980-w-eisenhower-pkwy,42.2473586,-83.758618,ChIJqbeaAkmvPIgRgrjmFu__AV0,https://maps.google.com/?cid=6701919122850494594&g_mp=Cidnb29nbGUubWFwcy5wbGFjZXMudjEuUGxhY2VzLlNlYXJjaFRleHQQAhgEIAA,Fueld
Knight's Steakhouse - Dexter Rd,Ann Arbor,MI,USA,"2324 Dexter Ave, Ann Arbor, MI 48103, USA",http://www.knightsrestaurants.com/,42.2849685,-83.7781454,ChIJdcsH-OmxPIgRfXkIKrGHszw,https://maps.google.com/?cid=4373988858091043197&g_mp=Cidnb29nbGUubWFwcy5wbGFjZXMudjEuUGxhY2VzLlNlYXJjaFRleHQQAhgEIAA,Knight's Steakhouse
Knight's Steakhouse - Downtown Ann Arbor,Ann Arbor,MI,USA,"600 E Liberty St, Ann Arbor, MI 48104, USA",http://www.knightsrestaurants.com/,42.2791591,-83.7418068,ChIJKZsHcD-uPIgRWNPeLQKzGis,https://maps.google.com/?cid=3105991714966262616&g_mp=Cidnb29nbGUubWFwcy5wbGFjZXMudjEuUGxhY2VzLlNlYXJjaFRleHQQAhgEIAA,Knight's Steakhouse Downtown
Mac's Acadian Seafood Shack,Ann Arbor,MI,USA,"104 E Michigan Ave, Saline, MI 48176, USA",http://www.macsinsaline.com/,42.1666667,-83.780942,ChIJCQCgfz-7PIgRTC7vFH09GGE,https://maps.google.com/?cid=6996409628551491148&g_mp=Cidnb29nbGUubWFwcy5wbGFjZXMudjEuUGxhY2VzLlNlYXJjaFRleHQQAhgEIAA,Mac's Acadian Seafood Shack
Miss Kim,Ann Arbor,MI,USA,"415 N 5th Ave, Ann Arbor, MI 48104, USA",https://www.misskimannarbor.com/,42.284623,-83.7462414,ChIJLaSH1hWuPIgRw6F8GUKBM6k,https://maps.google.com/?cid=12192230737117487555&g_mp=Cidnb29nbGUubWFwcy5wbGFjZXMudjEuUGxhY2VzLlNlYXJjaFRleHQQAhgEIAA,Miss Kim
Paesano Restaurant & Wine Bar,Ann Arbor,MI,USA,"3411 Washtenaw Ave, Ann Arbor, MI 48104, USA",http://paesanosannarbor.com/,42.256298,-83.6912686,ChIJj6_bYyavPIgRwfpIJZBvzqY,https://maps.google.com/?cid=12019667120389946049&g_mp=Cidnb29nbGUubWFwcy5wbGFjZXMudjEuUGxhY2VzLlNlYXJjaFRleHQQAhgEIAA,Paesano Restaurant & Wine Bar
Palio Ann Arbor,Ann Arbor,MI,USA,"347 S Main St, Ann Arbor, MI 48104, USA",https://paliorestaurant.com/,42.278268,-83.748481,ChIJee-WejyuPIgRiskpGQ48cww,https://maps.google.com/?cid=897126782026238346&g_mp=Cidnb29nbGUubWFwcy5wbGFjZXMudjEuUGxhY2VzLlNlYXJjaFRleHQQAhgEIAA,Palio Ann Arbor
Relish Restaurant & Bar,Ann Arbor,MI,USA,"610 Hilton Blvd, Ann Arbor, MI 48108, USA",http://relishannarbor.com/,42.2389197,-83.7406465,ChIJ7WuyNOuvPIgR8E69ygb7Q1s,https://maps.google.com/?cid=6576375887480835824&g_mp=Cidnb29nbGUubWFwcy5wbGFjZXMudjEuUGxhY2VzLlNlYXJjaFRleHQQAhgEIAA,Relish Restaurant
TAQ - Taqueria Restaurant & Bar - Ann Arbor,Ann Arbor,MI,USA,"120 E Liberty St, Ann Arbor, MI 48104, USA",https://taqannarbor.com/,42.2794186,-83.7475982,ChIJ68vWRTyuPIgRoncVfPW0j9c,https://maps.google.com/?cid=15532832606265898914&g_mp=Cidnb29nbGUubWFwcy5wbGFjZXMudjEuUGxhY2VzLlNlYXJjaFRleHQQAhgEIAA,TAQ | Taqueria Restaurant & Bar
The Real Seafood Co. Ann Arbor,Ann Arbor,MI,USA,"341 S Main St, Ann Arbor, MI 48104, USA",https://realseafoodcorestaurant.com/,42.278402,-83.748448,ChIJTdNPZTyuPIgRnknQF3ry6Dc,https://maps.google.com/?cid=4028736472882366878&g_mp=Cidnb29nbGUubWFwcy5wbGFjZXMudjEuUGxhY2VzLlNlYXJjaFRleHQQAhgEIAA,Real Seafood Company Ann Arbor
Mademoiselle Paris - Anna Maria Island,Anna Maria Fl,FL,USA,"9906 Gulf Dr, Anna Maria, FL 34216, USA",http://mademoiselleparis.com/,27.5259955,-82.7355832,ChIJDd4mIuAPw4gRHt7XU-e-hI4,https://maps.google.com/?cid=10269542951064952350&g_mp=Cidnb29nbGUubWFwcy5wbGFjZXMudjEuUGxhY2VzLlNlYXJjaFRleHQQAhgEIAA,Mademoiselle Paris French Restaurant & Bakery
Carrol's Creek Cafe,Annapolis,MD,USA,"410 Severn Ave, Annapolis, MD 21403, USA",http://carrolscreek.com/,38.9715896,-76.4837852,ChIJJwQ2xkb2t4kRkIqPoC6F9eg,https://maps.google.com/?cid=16786469621402143376&g_mp=Cidnb29nbGUubWFwcy5wbGFjZXMudjEuUGxhY2VzLlNlYXJjaFRleHQQAhgEIAA,Carrol's Creek Cafe
Grapes Wine Bar & Restaurant,Annapolis,MD,USA,"1410 Forest Dr # 6, Annapolis, MD 21403, USA",http://www.grapeswinebarannapolis.com/,38.9609479,-76.5095758,ChIJKcR5II_2t4kReUhzySnHQXo,https://maps.google.com/?cid=8809541328400763001&g_mp=Cidnb29nbGUubWFwcy5wbGFjZXMudjEuUGxhY2VzLlNlYXJjaFRleHQQAhgEIAA,Grapes Wine Bar & Restaurant
Harry Browne's,Annapolis,MD,USA,"66 State Cir, Annapolis, MD 21401, USA",http://www.harrybrownes.net/,38.9793638,-76.4898587,ChIJwxOTzE_2t4kRo5ShlOsXIk4,https://maps.google.com/?cid=5630088784744912035&g_mp=Cidnb29nbGUubWFwcy5wbGFjZXMudjEuUGxhY2VzLlNlYXJjaFRleHQQAhgEIAA,Harry Browne's Restaurant
J. Alexander's Annapolis,Annapolis,MD,USA,"1906 Towne Centre Blvd Suite 155, Annapolis, MD 21401, USA",https://jalexanders.com/,38.9815991,-76.541643,ChIJsS9x6uz3t4kR0C85sE_S7ds,https://maps.google.com/?cid=15847553903487430608&g_mp=Cidnb29nbGUubWFwcy5wbGFjZXMudjEuUGxhY2VzLlNlYXJjaFRleHQQAhgEIAA,J. Alexander's Restaurant
Leo,Annapolis,MD,USA,"212 West St, Annapolis, MD 21401, USA",https://www.leoannapolis.com/,38.977139,-76.501258,ChIJbdZ_qw33t4kRLFtl7O2pL6w,https://maps.google.com/?cid=12407322337767414572&g_mp=Cidnb29nbGUubWFwcy5wbGFjZXMudjEuUGxhY2VzLlNlYXJjaFRleHQQAhgEIAA,Leo Annapolis
Light House Bistro,Annapolis,MD,USA,"202 West St, Annapolis, MD 21401, USA",https://www.lighthousebistro.org/,38.9771269,-76.5008087,ChIJqeDaPlj2t4kR1iX87j_G66E,https://maps.google.com/?cid=11667637237528143318&g_mp=Cidnb29nbGUubWFwcy5wbGFjZXMudjEuUGxhY2VzLlNlYXJjaFRleHQQAhgEIAA,Light House Bistro
Metropolitan Kitchen & Lounge,Annapolis,MD,USA,"175 West St, Annapolis, MD 21401, USA",http://www.metropolitanannapolis.com/,38.9772442,-76.4996785,ChIJO1iqMlj2t4kRoD53SMDCVEk,https://maps.google.com/?cid=5284062393917718176&g_mp=Cidnb29nbGUubWFwcy5wbGFjZXMudjEuUGxhY2VzLlNlYXJjaFRleHQQAhgEIAA,Metropolitan Kitchen & Lounge
Old Stein Inn,Annapolis,MD,USA,"1143 Central Ave E, Edgewater, MD 21037, USA",http://www.oldstein-inn.com/,38.896161,-76.512613,ChIJibwrPOX0t4kRZMjeljzucbQ,https://maps.google.com/?cid=13002435543191963748&g_mp=Cidnb29nbGUubWFwcy5wbGFjZXMudjEuUGxhY2VzLlNlYXJjaFRleHQQAhgEIAA,Old Stein Inn
Preserve,Annapolis,MD,USA,"164 Main St, Annapolis, MD 21401, USA",http://www.preserve-eats.com/,38.977876,-76.4898159,ChIJY3IK60_2t4kRiLhedESLpSA,https://maps.google.com/?cid=2352439506497353864&g_mp=Cidnb29nbGUubWFwcy5wbGFjZXMudjEuUGxhY2VzLlNlYXJjaFRleHQQAhgEIAA,Preserve
Rams Head Roadhouse,Annapolis,MD,USA,"1773 Generals Hwy, Annapolis, MD 21401, USA",http://www.ramsheadroadhouse.com/,39.0101027,-76.566048,ChIJ03srFcTwt4kR0blDiCv9qS8,https://maps.google.com/?cid=3434554554258274769&g_mp=Cidnb29nbGUubWFwcy5wbGFjZXMudjEuUGxhY2VzLlNlYXJjaFRleHQQAhgEIAA,Rams Head Roadhouse
Reynolds Tavern,Annapolis,MD,USA,"7 Church Cir, Annapolis, MD 21401, USA",https://reynoldstavern.org/?utm_source=google-gbp&utm_medium=organic&utm_campaign=gbp-listing,38.9780893,-76.4934433,ChIJbdYEb1D2t4kRAzttuQbTlLM,https://maps.google.com/?cid=12940199655176485635&g_mp=Cidnb29nbGUubWFwcy5wbGFjZXMudjEuUGxhY2VzLlNlYXJjaFRleHQQAhgEIAA,Reynolds Tavern and 1747 Pub
Severn Inn,Annapolis,MD,USA,"1993 Baltimore Annapolis Blvd, Annapolis, MD 21409, USA",https://www.severninn.com/,38.9949858,-76.4830356,ChIJXXHQCLf3t4kRla1Y76O7vMQ,https://maps.google.com/?cid=14176412039825108373&g_mp=Cidnb29nbGUubWFwcy5wbGFjZXMudjEuUGxhY2VzLlNlYXJjaFRleHQQAhgEIAA,Severn Inn
Stoney River Steakhouse and Grill - Annapolis,Annapolis,MD,USA,"2190 Annapolis Mall Rd, Annapolis, MD 21401, USA",http://www.stoneyriver.com/,38.9907815,-76.5464863,ChIJ9dPg0tT2t4kRO_Pr6SuM-BY,https://maps.google.com/?cid=1655226983294694203&g_mp=Cidnb29nbGUubWFwcy5wbGFjZXMudjEuUGxhY2VzLlNlYXJjaFRleHQQAhgEIAA,Stoney River Steakhouse and Grill
Tsunami - Annapolis,Annapolis,MD,USA,"51 West St, Annapolis, MD 21401, USA",http://tsunamiannapolis.com/,38.9782489,-76.4953139,ChIJSSfTl1D2t4kRdVcrShVQvgM,https://maps.google.com/?cid=269741080057698165&g_mp=Cidnb29nbGUubWFwcy5wbGFjZXMudjEuUGxhY2VzLlNlYXJjaFRleHQQAhgEIAA,Tsu
Uncle Julio's - Annapolis,Annapolis,MD,USA,"181 Jennifer Rd, Annapolis, MD 21401, USA",https://unclejulios.com/,38.9853273,-76.5448408,ChIJ4Y1Ovej2t4kRlq2vgQ7pds4,https://maps.google.com/?cid=14877334667579600278&g_mp=Cidnb29nbGUubWFwcy5wbGFjZXMudjEuUGxhY2VzLlNlYXJjaFRleHQQAhgEIAA,Uncle Julio's Annapolis
Rosati's Pizza Pub Apopka,Apopka Fl,FL,USA,"550 S Hunt Club Blvd, Apopka, FL 32703, USA",https://myrosatis.com/apopka/,28.6709118,-81.4510557,ChIJyTv7paJ254gRPrtpoCgg0pU,https://maps.google.com/?cid=10795726615622564670&g_mp=Cidnb29nbGUubWFwcy5wbGFjZXMudjEuUGxhY2VzLlNlYXJjaFRleHQQAhgEIAA,Rosati's Pizza Pub Authentic Chicago Pizza
Marvol,Appleton Wi,WI,USA,"126 E Pacific St, Appleton, WI 54911, USA",https://resy.com/cities/appleton-wi-wi/venues/marvol,44.2672252,-88.4046706,ChIJj-59QQC3A4gRyMylQufs8Tk,https://maps.google.com/?cid=4175378807548923080&g_mp=Cidnb29nbGUubWFwcy5wbGFjZXMudjEuUGxhY2VzLlNlYXJjaFRleHQQAhgEIAA,Marvol
"Benihana - Santa Anita, CA",Arcadia,CA,USA,"400 S Baldwin Ave, Arcadia, CA 91007, USA",https://www.benihana.com/,34.1349296,-118.0495417,ChIJTQ3dz73bwoARqxlnfDb69Zc,https://maps.google.com/?cid=10949933180943538603&g_mp=Cidnb29nbGUubWFwcy5wbGFjZXMudjEuUGxhY2VzLlNlYXJjaFRleHQQAhgEIAA,Benihana - Santa Anita (Arcadia)
Bess,Arcadia,CA,USA,"304 E Huntington Dr, Arcadia, CA 91006, USA",http://kababstic.com/,34.1398065,-118.0237946,ChIJkzKffgDbwoARf8lPoRUfWmw,https://maps.google.com/?cid=7807587081761311103&g_mp=Cidnb29nbGUubWFwcy5wbGFjZXMudjEuUGxhY2VzLlNlYXJjaFRleHQQAhgEIAA,Kababstic Mediterranean Grill
Campground,Arcata,CA,USA,"865 9th St, Arcata, CA 95521, USA",http://www.campgroundarcata.com/,40.868958,-124.087514,ChIJs0Z9gw9X0VQRqpZ_o5PlHIY,https://maps.google.com/?cid=9663851322696242858&g_mp=Cidnb29nbGUubWFwcy5wbGFjZXMudjEuUGxhY2VzLlNlYXJjaFRleHQQAhgEIAA,Campground
Havana,Arcata,CA,USA,"780 7th St, Arcata, CA 95521, USA",http://havanainarcata.com/,40.867709,-124.087162,ChIJJThrPUZX0VQRDs64RJRBUsI,https://maps.google.com/?cid=14002326296512220686&g_mp=Cidnb29nbGUubWFwcy5wbGFjZXMudjEuUGxhY2VzLlNlYXJjaFRleHQQAhgEIAA,Havana Bar
Salt Fish House,Arcata,CA,USA,"935 I St, Arcata, CA 95521, USA",http://www.saltfishhouse.com/,40.869908,-124.0879007,ChIJi6YTYQ9X0VQRW9uZBPxVlG4,https://maps.google.com/?cid=7968088181622561627&g_mp=Cidnb29nbGUubWFwcy5wbGFjZXMudjEuUGxhY2VzLlNlYXJjaFRleHQQAhgEIAA,SALT
Lola's Garden,Ardmore,PA,USA,"51 St Georges Rd, Ardmore, PA 19003, USA",https://www.lolasgardenrestaurant.com/,40.008884,-75.28935,ChIJWa9djmHBxokRigkZKahf1EQ,https://maps.google.com/?cid=4959694265490409866&g_mp=Cidnb29nbGUubWFwcy5wbGFjZXMudjEuUGxhY2VzLlNlYXJjaFRleHQQAhgEIAA,Lola's Garden
Positano Ristorante,Ardmore,PA,USA,"21 W Lancaster Ave, Ardmore, PA 19003, USA",https://www.positanoristorante.com/,40.0084418,-75.2918786,ChIJIcrIq4fAxokRVtxfQTeHoZQ,https://maps.google.com/?cid=10709990060253502550&g_mp=Cidnb29nbGUubWFwcy5wbGFjZXMudjEuUGxhY2VzLlNlYXJjaFRleHQQAhgEIAA,Positano Ristorante
altThai,Arlington Heights,IL,USA,"40 S Arlington Heights Rd, Arlington Heights, IL 60005, USA",https://www.altthai.com/,42.0819836,-87.9807516,ChIJoYLs7_K6D4gRbYRjmrfgyXE,https://maps.google.com/?cid=8199331675778548845&g_mp=Cidnb29nbGUubWFwcy5wbGFjZXMudjEuUGxhY2VzLlNlYXJjaFRleHQQAhgEIAA,altThai
Shakou - Arlington Heights,Arlington Heights,IL,USA,"70 N Vail Ave, Arlington Heights, IL 60005, USA",http://shakourestaurants.com/,42.0836362,-87.9843524,ChIJTYCasO26D4gRNE7SSF9_vP8,https://maps.google.com/?cid=18427743822513589812&g_mp=Cidnb29nbGUubWFwcy5wbGFjZXMudjEuUGxhY2VzLlNlYXJjaFRleHQQAhgEIAA,Shakou Restaurants
Barbue,Arlington,NY,USA,"357 Hooker Ave, Poughkeepsie, NY 12603, USA",https://genevasblueshouse.wixsite.com/genevasblueshouse,41.6832886,-73.9026568,ChIJtaix8Js_3YkRBv8XwRFlxUw,https://maps.google.com/?cid=5531938844222947078&g_mp=Cidnb29nbGUubWFwcy5wbGFjZXMudjEuUGxhY2VzLlNlYXJjaFRleHQQAhgEIAA,Geneva’s Blues House
"Cut & Bourbon at Live! by Loews - Arlington, Texas",Arlington,TX,USA,"1600 E Randol Mill Rd, Arlington, TX 76011, USA",https://www.cutandbourbon.com/,32.7494515,-97.085689,ChIJk4VNGZCHToYRc5Gzo_-9DTU,https://maps.google.com/?cid=3822920564368183667&g_mp=Cidnb29nbGUubWFwcy5wbGFjZXMudjEuUGxhY2VzLlNlYXJjaFRleHQQAhgEIAA,Cut & Bourbon
Farena at Loews Arlington Hotel,Arlington,TX,USA,"888 Nolan Ryan Expy, Arlington, TX 76011, USA",https://www.farenarestaurant.com/,32.7504499,-97.0845492,ChIJv8OPsteHToYRslyna5NRrps,https://maps.google.com/?cid=11217993415434656946&g_mp=Cidnb29nbGUubWFwcy5wbGFjZXMudjEuUGxhY2VzLlNlYXJjaFRleHQQAhgEIAA,Farena
Smoke'N Ash BBQ,Arlington,TX,USA,"5904 S Cooper St Suite 110, Arlington, TX 76017, USA",http://www.smokenashbbq.net/,32.6511083,-97.136175,ChIJAQBwKD5iToYRUQSX9UKOfLw,https://maps.google.com/?cid=13581886994481874001&g_mp=Cidnb29nbGUubWFwcy5wbGFjZXMudjEuUGxhY2VzLlNlYXJjaFRleHQQAhgEIAA,Smoke'N Ash BBQ
"SOAK Cabanas at Live! by Loews - Arlington, Texas",Arlington,TX,USA,"1600 E Randol Mill Rd, Arlington, TX 76011, USA",https://www.loewshotels.com/live-by-loews-arlington-texas,32.7495004,-97.0857001,ChIJMzwS8XuHToYRlFXoTw8Tun8,https://maps.google.com/?cid=9203689744971093396&g_mp=Cidnb29nbGUubWFwcy5wbGFjZXMudjEuUGxhY2VzLlNlYXJjaFRleHQQAhgEIAA,"Live! by Loews - Arlington, Texas"
Tomar El Sol Cabanas at Loews Arlington Hotel,Arlington,TX,USA,"888 Nolan Ryan Expy, Arlington, TX 76011, USA",https://www.loewshotels.com/arlington-hotel,32.7504067,-97.084981,ChIJZ-TSN_6HToYR-IKNZHfhSYQ,https://maps.google.com/?cid=9532397989210718968&g_mp=Cidnb29nbGUubWFwcy5wbGFjZXMudjEuUGxhY2VzLlNlYXJjaFRleHQQAhgEIAA,Loews Arlington Hotel & Convention Center
Uncle Julio's - Arlington,Arlington,TX,USA,"150 E Interstate 20, Arlington, TX 76018, USA",https://unclejulios.com/,32.6771634,-97.1124987,ChIJg61Upb9iToYRi3nsScV6QvE,https://maps.google.com/?cid=17384592499370916235&g_mp=Cidnb29nbGUubWFwcy5wbGFjZXMudjEuUGxhY2VzLlNlYXJjaFRleHQQAhgEIAA,Uncle Julio's Arlington
A Modo Mio,Arlington,VA,USA,"5555 Langston Blvd., Arlington, VA 22207, USA",https://amodomiopizza.com/,38.895989,-77.140322,ChIJ2Te0HlO0t4kR9FcyYrgexs4,https://maps.google.com/?cid=14899630194472146932&g_mp=Cidnb29nbGUubWFwcy5wbGFjZXMudjEuUGxhY2VzLlNlYXJjaFRleHQQAhgEIAA,A Modo Mio
CARBONARA,Arlington,VA,USA,"3865 Wilson Blvd, Arlington, VA 22203, USA",http://carbonarava.com/,38.8802703,-77.1063396,ChIJCUbT2we1t4kRF9j2NQl9pjM,https://maps.google.com/?cid=3721799620581840919&g_mp=Cidnb29nbGUubWFwcy5wbGFjZXMudjEuUGxhY2VzLlNlYXJjaFRleHQQAhgEIAA,Carbonara
Courthaus Social,Arlington,VA,USA,"2300 Clarendon Blvd, Arlington, VA 22201, USA",http://www.courthaussocial.com/,38.8901941,-77.0865354,ChIJj0pMlYm2t4kRbbgvV5VQ7x8,https://maps.google.com/?cid=2301146536952707181&g_mp=Cidnb29nbGUubWFwcy5wbGFjZXMudjEuUGxhY2VzLlNlYXJjaFRleHQQAhgEIAA,Courthaus Social
El Mercat Bar De Tapas,Arlington,VA,USA,"1301 S Joyce St, Arlington, VA 22202, USA",https://www.elmercatbardetapas.com/,38.8631779,-77.0628839,ChIJXzPKdQC3t4kRA-JdrPjXN7Q,https://maps.google.com/?cid=12986085513589809667&g_mp=Cidnb29nbGUubWFwcy5wbGFjZXMudjEuUGxhY2VzLlNlYXJjaFRleHQQAhgEIAA,El Mercat Bar de Tapas - Arlington
Epic Smokehouse,Arlington,VA,USA,"1330 S Fern St, Arlington, VA 22202, USA",http://www.epicsmokehouse.com/,38.8610596,-77.0561498,ChIJwTmtQie3t4kRRRkbMSWl3Pk,https://maps.google.com/?cid=18004446989476632901&g_mp=Cidnb29nbGUubWFwcy5wbGFjZXMudjEuUGxhY2VzLlNlYXJjaFRleHQQAhgEIAA,Epic Smokehouse
Gute Leute,Arlington,VA,USA,"800 N Glebe Rd Suite 100, Arlington, VA 22203, USA",http://www.guteusa.com/,38.8802115,-77.1149873,ChIJ9RykbQC1t4kRK1UTKzthdQ4,https://maps.google.com/?cid=1041845795559789867&g_mp=Cidnb29nbGUubWFwcy5wbGFjZXMudjEuUGxhY2VzLlNlYXJjaFRleHQQAhgEIAA,Gute Leute
Hyde Social,Arlington,VA,USA,"3100 Clarendon Blvd, Arlington, VA 22201, USA",https://hyde-social.com/,38.8863216,-77.0954284,ChIJiWsQ9cq3t4kRXWZ1e0VYtK0,https://maps.google.com/?cid=12516726319816730205&g_mp=Cidnb29nbGUubWFwcy5wbGFjZXMudjEuUGxhY2VzLlNlYXJjaFRleHQQAhgEIAA,Hyde Social
Immigrant Food - Ballston,Arlington,VA,USA,"4245 Fairfax Dr, Arlington, VA 22203, USA",https://immigrantfood.com/,38.8826297,-77.112312,ChIJIcREgQa1t4kRcb6ggjdF4Ds,https://maps.google.com/?cid=4314524547738025585&g_mp=Cidnb29nbGUubWFwcy5wbGFjZXMudjEuUGxhY2VzLlNlYXJjaFRleHQQAhgEIAA,Immigrant Food Ballston
Mister Days,Arlington,VA,USA,"1101 N Highland St, Arlington, VA 22201, USA",http://misterdaysusa.com/,38.8864137,-77.0946312,ChIJccwBFoS2t4kRJ99FXoXY62k,https://maps.google.com/?cid=7632432060833324839&g_mp=Cidnb29nbGUubWFwcy5wbGFjZXMudjEuUGxhY2VzLlNlYXJjaFRleHQQAhgEIAA,Mister Days
Mussel Bar Arlington,Arlington,VA,USA,"800 N Glebe Rd, Arlington, VA 22203, USA",http://www.musselbar.com/,38.88,-77.1147222,ChIJ1ZeISDu0t4kRv0rxpeoCHwM,https://maps.google.com/?cid=224901713221470911&g_mp=Cidnb29nbGUubWFwcy5wbGFjZXMudjEuUGxhY2VzLlNlYXJjaFRleHQQAhgEIAA,Mussel Bar & Grille Arlington
Nettie's Tavern,Arlington,VA,USA,"2854 Wilson Blvd, Arlington, VA 22201, USA",https://www.nettiestavern.com/,38.8886034,-77.092894,ChIJ5bjTKWu3t4kR5oXymbEqOIQ,https://maps.google.com/?cid=9527411953982670310&g_mp=Cidnb29nbGUubWFwcy5wbGFjZXMudjEuUGxhY2VzLlNlYXJjaFRleHQQAhgEIAA,Nettie's Tavern
Oasis The Listening Bar,Arlington,VA,USA,"2940 Clarendon Blvd, Arlington, VA 22201, USA",https://oasisthelisteningbar.com/,38.8874723,-77.0935622,ChIJqwtfdyi3t4kRWc1grv1smbw,https://maps.google.com/?cid=13590013187375287641&g_mp=Cidnb29nbGUubWFwcy5wbGFjZXMudjEuUGxhY2VzLlNlYXJjaFRleHQQAhgEIAA,Oasis The Listening Bar
Padaek,Arlington,VA,USA,"2931 S Glebe Rd, Arlington, VA 22206, USA",https://padaekdc.com/,38.8449707,-77.0681838,ChIJNb8uZpGxt4kRqei0B2zWN-k,https://maps.google.com/?cid=16805136294030403753&g_mp=Cidnb29nbGUubWFwcy5wbGFjZXMudjEuUGxhY2VzLlNlYXJjaFRleHQQAhgEIAA,Padaek Arlington Ridge
Quarterdeck,Arlington,VA,USA,"1200 Fort Myer Dr, Arlington, VA 22209, USA",https://www.quarterdeckarlington.com/menus/,38.887917,-77.0758105,ChIJSSLusfW2t4kRTUYLs32pD3o,https://maps.google.com/?cid=8795434954617734733&g_mp=Cidnb29nbGUubWFwcy5wbGFjZXMudjEuUGxhY2VzLlNlYXJjaFRleHQQAhgEIAA,Quarterdeck
Rooftop Recess,Arlington,VA,USA,"2424 Wilson Blvd, Arlington, VA 22201, USA",https://www.rooftoprecess.com/,38.8902563,-77.0882371,ChIJRXLdLXy3t4kRHcyoxaa7fOo,https://maps.google.com/?cid=16896586226942397469&g_mp=Cidnb29nbGUubWFwcy5wbGFjZXMudjEuUGxhY2VzLlNlYXJjaFRleHQQAhgEIAA,Rooftop Recess
Seamore's - Arlington,Arlington,VA,USA,"2815 Clarendon Blvd, Arlington, VA 22201, USA",http://www.seamores.com/,38.8884638,-77.0920375,ChIJ6VGXYXu3t4kRbIci417yivQ,https://maps.google.com/?cid=17621162981392025452&g_mp=Cidnb29nbGUubWFwcy5wbGFjZXMudjEuUGxhY2VzLlNlYXJjaFRleHQQAhgEIAA,Seamore's
Sfoglina - Rosslyn,Arlington,VA,USA,"1100 Wilson Blvd, Arlington, VA 22209, USA",http://www.sfoglinapasta.com/rosslyn,38.8945754,-77.0705408,ChIJd1ZL6ka3t4kRW63zZB22xsg,https://maps.google.com/?cid=14467451090338295131&g_mp=Cidnb29nbGUubWFwcy5wbGFjZXMudjEuUGxhY2VzLlNlYXJjaFRleHQQAhgEIAA,Sfoglina Rosslyn
Surreal Global Kitchen,Arlington,VA,USA,"2117 Crystal Dr, Arlington, VA 22202, USA",https://surrealglobalkitchen.com/?utm_source=google,38.8548229,-77.049168,ChIJQ0izbIu3t4kRcwe6UF6FozY,https://maps.google.com/?cid=3937137139379734387&g_mp=Cidnb29nbGUubWFwcy5wbGFjZXMudjEuUGxhY2VzLlNlYXJjaFRleHQQAhgEIAA,Surreal Global Kitchen
Tacombi - Arlington,Arlington,VA,USA,"1550 Crystal Dr, Arlington, VA 22202, USA",https://www.tacombi.com/?utm_source=gmb&utm_medium=yext&y_source=1_NDc4NjI0NDUtNzE1LWxvY2F0aW9uLndlYnNpdGU%3D,38.8591041,-77.0494895,ChIJiWHEypy3t4kRwHq0vecDPdw,https://maps.google.com/?cid=15869844955778546368&g_mp=Cidnb29nbGUubWFwcy5wbGFjZXMudjEuUGxhY2VzLlNlYXJjaFRleHQQAhgEIAA,Tacombi
Three Whistles,Arlington,VA,USA,"2719 Wilson Blvd, Arlington, VA 22201, USA",http://www.three-whistles.com/,38.8896176,-77.0912282,ChIJFVxX-V63t4kRca-K_dM8UfU,https://maps.google.com/?cid=17676976893595398001&g_mp=Cidnb29nbGUubWFwcy5wbGFjZXMudjEuUGxhY2VzLlNlYXJjaFRleHQQAhgEIAA,Three Whistles - Eat Drink Work
Uncle Julio's - Ballston,Arlington,VA,USA,"4301 Fairfax Dr #100, Arlington, VA 22203, USA",https://unclejulios.com/,38.8827233,-77.1133155,ChIJJeFiNyW0t4kRx1cUY15WQxE,https://maps.google.com/?cid=1243932885473580999&g_mp=Cidnb29nbGUubWFwcy5wbGFjZXMudjEuUGxhY2VzLlNlYXJjaFRleHQQAhgEIAA,Uncle Julio's
Yunnan by Potomac,Arlington,VA,USA,"1515 Wilson Blvd Unit 102, Arlington, VA 22209, USA",https://www.cheersbite.com/yunoodlesrosslyn,38.8951177,-77.0747264,ChIJffYlz663t4kRsZXddSXWOxY,https://maps.google.com/?cid=1602109548839933361&g_mp=Cidnb29nbGUubWFwcy5wbGFjZXMudjEuUGxhY2VzLlNlYXJjaFRleHQQAhgEIAA,Yu Noodles
Bronwyn on Battenkill,Arlington,VT,USA,"5403 Vermont Rte 7a, Arlington, VT 05250, USA",http://www.bronwynonbattenkill.com/,43.0927811,-73.1405616,ChIJ-YzwuIaL4IkRKhYv6IFZJw0,https://maps.google.com/?cid=947824661065831978&g_mp=Cidnb29nbGUubWFwcy5wbGFjZXMudjEuUGxhY2VzLlNlYXJjaFRleHQQAhgEIAA,BRONWYN on Battenkill
The Little Big Cup,Arnaudville,LA,USA,"149 Fuselier Rd, Arnaudville, LA 70512, USA",http://www.littlebigcup.com/,30.3972222,-91.9322222,ChIJ6TFR22WOJIYRHHEnxeIAgnU,https://maps.google.com/?cid=8467331223380259100&g_mp=Cidnb29nbGUubWFwcy5wbGFjZXMudjEuUGxhY2VzLlNlYXJjaFRleHQQAhgEIAA,The Little Big Cup
Butchery,Arvada,CO,USA,"7923 Allison Way, Arvada, CO 80005, USA",http://thebutcheryarvada.com/,39.8396437,-105.0872,ChIJ-RQlmPuIa4cRfMdmHeSGcog,https://maps.google.com/?cid=9832069250807154556&g_mp=Cidnb29nbGUubWFwcy5wbGFjZXMudjEuUGxhY2VzLlNlYXJjaFRleHQQAhgEIAA,"The Butchery- Steaks, Chops & Seafood"
Spice Room,Arvada,CO,USA,"7355 Ralston Rd Unit H, Arvada, CO 80002, USA",https://denverspiceroom.com/best-indian-food-around-arvada/,39.8027226,-105.0771162,ChIJ76sG-huHa4cR8E9lfgYNG2o,https://maps.google.com/?cid=7645719113933082608&g_mp=Cidnb29nbGUubWFwcy5wbGFjZXMudjEuUGxhY2VzLlNlYXJjaFRleHQQAhgEIAA,SPICE ROOM
Asbury Ale House,Asbury,NJ,USA,"531 Cookman Ave, Asbury Park, NJ 07712, USA",https://www.asburyalehouse.com/,40.2164807,-74.0099062,ChIJeeWZGjkmwokR0NdzPIRKiz8,https://maps.google.com/?cid=4578835377962604496&g_mp=Cidnb29nbGUubWFwcy5wbGFjZXMudjEuUGxhY2VzLlNlYXJjaFRleHQQAhgEIAA,Asbury Ale House
Barrio Costero,Asbury,NJ,USA,"610 Bangs Ave, Asbury Park, NJ 07712, USA",http://www.barriocostero.com/,40.2167694,-74.0104743,ChIJrb3_PTkmwokRF6OJlaWLPk0,https://maps.google.com/?cid=5566039732771201815&g_mp=Cidnb29nbGUubWFwcy5wbGFjZXMudjEuUGxhY2VzLlNlYXJjaFRleHQQAhgEIAA,Barrio Costero
Hadaka Asbury Park,Asbury,NJ,USA,"527 Bangs Ave, Asbury Park, NJ 07712, USA",https://hadakanj.com/,40.2169072,-74.0096946,ChIJjX3zuwUnwokRPrK3IyXekFg,https://maps.google.com/?cid=6381844923078390334&g_mp=Cidnb29nbGUubWFwcy5wbGFjZXMudjEuUGxhY2VzLlNlYXJjaFRleHQQAhgEIAA,Hadaka Asbury Park
Ironbound Farm,Asbury,NJ,USA,"360 Co Rd 579, Asbury, NJ 08802, USA",http://www.ironboundhardcider.com/,40.6262523,-75.0450124,ChIJGSX4HrR0xIkRydJBmxI_EfE,https://maps.google.com/?cid=17370734586891457225&g_mp=Cidnb29nbGUubWFwcy5wbGFjZXMudjEuUGxhY2VzLlNlYXJjaFRleHQQAhgEIAA,The Ciderhouse at Ironbound Farm
Judy's,Asbury,NJ,USA,"408 7th Ave, Asbury Park, NJ 07712, USA",https://www.judyandharrys.com/,40.2277398,-74.0040132,ChIJGxZ0YhUnwokRrK2Vd_V5orA,https://maps.google.com/?cid=12727869592082689452&g_mp=Cidnb29nbGUubWFwcy5wbGFjZXMudjEuUGxhY2VzLlNlYXJjaFRleHQQAhgEIAA,Judy and Harry's
Moonstruck,Asbury,NJ,USA,"517 Lake Ave, Asbury Park, NJ 07712, USA",http://moonstrucknj.com/,40.2160614,-74.0087381,ChIJ5SQjqjkmwokRK5zfeCYrxDI,https://maps.google.com/?cid=3658096241568357419&g_mp=Cidnb29nbGUubWFwcy5wbGFjZXMudjEuUGxhY2VzLlNlYXJjaFRleHQQAhgEIAA,Moonstruck
Reyla,Asbury,NJ,USA,"603 Mattison Ave, Asbury Park, NJ 07712, USA",https://www.heyreyla.com/,40.2163559,-74.0106621,ChIJNa-0EzkmwokRen_z9aCsa4k,https://maps.google.com/?cid=9902198013025288058&g_mp=Cidnb29nbGUubWFwcy5wbGFjZXMudjEuUGxhY2VzLlNlYXJjaFRleHQQAhgEIAA,REYLA
TAKA,Asbury,NJ,USA,"660 Cookman Ave, Asbury Park, NJ 07712, USA",http://takaasbury.com/,40.2155878,-74.0119949,ChIJYxtcDTkmwokR4vDzhn6hN0A,https://maps.google.com/?cid=4627344706948559074&g_mp=Cidnb29nbGUubWFwcy5wbGFjZXMudjEuUGxhY2VzLlNlYXJjaFRleHQQAhgEIAA,Taka
Aura,Ashburn,VA,USA,"44630 Waxpool Rd, Ashburn, VA 20147, USA",https://www.auraashburn.com/,39.0138055,-77.4611271,ChIJJ4HueAA5tokRC8SGmeZ9KT0,https://maps.google.com/?cid=4407192139730437131&g_mp=Cidnb29nbGUubWFwcy5wbGFjZXMudjEuUGxhY2VzLlNlYXJjaFRleHQQAhgEIAA,Aura Indian Food Paradise
Ford's Fish Shack-Ashburn,Ashburn,VA,USA,"44260 Ice Rink Plaza #101, Ashburn, VA 20147, USA",https://fordsfishshack.com/,39.0205354,-77.470242,ChIJTZuyTys5tokRXniANxYJP_A,https://maps.google.com/?cid=17311565483660572766&g_mp=Cidnb29nbGUubWFwcy5wbGFjZXMudjEuUGxhY2VzLlNlYXJjaFRleHQQAhgEIAA,Ford's Fish Shack
Rupa Vira's The Signature,Ashburn,VA,USA,"21760 Beaumeade Cir Unit 120A, Ashburn, VA 20147, USA",http://thesignatureva.com/,39.0166819,-77.4568976,ChIJP1Zhsic5tokRPnhfV--oBY4,https://maps.google.com/?cid=10233771474185844798&g_mp=Cidnb29nbGUubWFwcy5wbGFjZXMudjEuUGxhY2VzLlNlYXJjaFRleHQQAhgEIAA,Rupa Vira's The Signature - Finest Indian Cuisine
Sense of Thai - Ashburn,Ashburn,VA,USA,"20413 Exchange St, Ashburn, VA 20147, USA",http://www.senseofthai.com/,39.0512865,-77.4540727,ChIJbWz9OFk5tokRKfffKVvWlsY,https://maps.google.com/?cid=14309860553049241385&g_mp=Cidnb29nbGUubWFwcy5wbGFjZXMudjEuUGxhY2VzLlNlYXJjaFRleHQQAhgEIAA,"SENSE OF THAI , One Loudoun"
131 MAIN - Asheville,Asheville,NC,USA,"308 Thetford St, Asheville, NC 28803, USA",https://www.131-main.com/asheville/,35.485205,-82.557653,ChIJZc8XEDTtWYgRtJ9JJ--xwNY,https://maps.google.com/?cid=15474563960359460788&g_mp=Cidnb29nbGUubWFwcy5wbGFjZXMudjEuUGxhY2VzLlNlYXJjaFRleHQQAhgEIAA,131 MAIN Restaurant
Bone & Broth,Asheville,NC,USA,"94 Charlotte St, Asheville, NC 28801, USA",https://boneandbrothasheville.com/,35.6027304,-82.5469591,ChIJxfCNoab0WYgRlJcDgWUyzh4,https://maps.google.com/?cid=2219767077877815188&g_mp=Cidnb29nbGUubWFwcy5wbGFjZXMudjEuUGxhY2VzLlNlYXJjaFRleHQQAhgEIAA,Bone and Broth
Chestnut,Asheville,NC,USA,"48 Biltmore Ave, Asheville, NC 28801, USA",https://www.chestnutasheville.com/,35.593166,-82.550943,ChIJXzYq41nzWYgRmy6GPmXlimQ,https://maps.google.com/?cid=7244855173582302875&g_mp=Cidnb29nbGUubWFwcy5wbGFjZXMudjEuUGxhY2VzLlNlYXJjaFRleHQQAhgEIAA,Chestnut
Copper Crown,Asheville,NC,USA,"1011 Tunnel Rd #100, Asheville, NC 28805, USA",http://coppercrownavl.com/,35.5871818,-82.4937082,ChIJH_zeIvHzWYgRp5Zk07MRpaY,https://maps.google.com/?cid=12008023445496698535&g_mp=Cidnb29nbGUubWFwcy5wbGFjZXMudjEuUGxhY2VzLlNlYXJjaFRleHQQAhgEIAA,Copper Crown
Corner Kitchen,Asheville,NC,USA,"3 Boston Way, Asheville, NC 28803, USA",https://thecornerkitchen.com/,35.5662844,-82.5411817,ChIJ38Csbj3zWYgRWUxLDHVnApY,https://maps.google.com/?cid=10809315808057707609&g_mp=Cidnb29nbGUubWFwcy5wbGFjZXMudjEuUGxhY2VzLlNlYXJjaFRleHQQAhgEIAA,Corner Kitchen
Crusco,Asheville,NC,USA,"348 Depot St Ste 190, Asheville, NC 28801, USA",http://www.restaurantcrusco.com/,35.5817107,-82.5643727,ChIJRfgwKfyNWYgRZVyAdoAjb1s,https://maps.google.com/?cid=6588523814517234789&g_mp=Cidnb29nbGUubWFwcy5wbGFjZXMudjEuUGxhY2VzLlNlYXJjaFRleHQQAhgEIAA,Crusco
Cúrate,Asheville,NC,USA,"13 Biltmore Ave, Asheville, NC 28801, USA",http://www.curatetapasbar.com/bar-de-tapas,35.5942295,-82.55168,ChIJNX8iKGnzWYgRtAXiJSHW41I,https://maps.google.com/?cid=5972852968681244084&g_mp=Cidnb29nbGUubWFwcy5wbGFjZXMudjEuUGxhY2VzLlNlYXJjaFRleHQQAhgEIAA,Cúrate Bar de Tapas
Gemelli,Asheville,NC,USA,"70 Westgate Pkwy, Asheville, NC 28806, USA",https://gemelli.restaurant/,35.59256,-82.575088,ChIJR5KvOemNWYgRe5PyAl-M364,https://maps.google.com/?cid=12600944622105170811&g_mp=Cidnb29nbGUubWFwcy5wbGFjZXMudjEuUGxhY2VzLlNlYXJjaFRleHQQAhgEIAA,Gemelli
Golden Hour,Asheville,NC,USA,"95 Roberts St, Asheville, NC 28801, USA",https://www.goldenhouravl.com/,35.5874624,-82.5673305,ChIJoeERWl6NWYgRVONgZrPLObk,https://maps.google.com/?cid=13346922942066385748&g_mp=Cidnb29nbGUubWFwcy5wbGFjZXMudjEuUGxhY2VzLlNlYXJjaFRleHQQAhgEIAA,Golden Hour
Jargon,Asheville,NC,USA,"715 Haywood Rd, Asheville, NC 28806, USA",https://jargonrestaurant.com/,35.577629,-82.592117,ChIJoTeHJO2MWYgRJreRL06Eb90,https://maps.google.com/?cid=15956117476137350950&g_mp=Cidnb29nbGUubWFwcy5wbGFjZXMudjEuUGxhY2VzLlNlYXJjaFRleHQQAhgEIAA,Jargon
Jazmin,Asheville,NC,USA,"22 College St, Asheville, NC 28801, USA",https://www.jazminasheville.com/,35.594971,-82.5546389,ChIJU8yhC9DzWYgRlMvv1_VdtDo,https://maps.google.com/?cid=4230109260478925716&g_mp=Cidnb29nbGUubWFwcy5wbGFjZXMudjEuUGxhY2VzLlNlYXJjaFRleHQQAhgEIAA,JAZMIN
Jettie Rae's Oyster House,Asheville,NC,USA,"143 Charlotte St, Asheville, NC 28801, USA",https://www.jettieraes.com/,35.6045446,-82.5462553,ChIJiXt5y6n1WYgRMS4S_e7wgzw,https://maps.google.com/?cid=4360593773463481905&g_mp=Cidnb29nbGUubWFwcy5wbGFjZXMudjEuUGxhY2VzLlNlYXJjaFRleHQQAhgEIAA,Jettie Rae's
Limones,Asheville,NC,USA,"15 Eagle St, Asheville, NC 28801, USA",http://limonesavl.com/,35.5938103,-82.5506959,ChIJj1v93VnzWYgRUUoZ_Nrk5Nk,https://maps.google.com/?cid=15700925830103910993&g_mp=Cidnb29nbGUubWFwcy5wbGFjZXMudjEuUGxhY2VzLlNlYXJjaFRleHQQAhgEIAA,Limones Restaurant
On the Verandah,Asheville,NC,USA,"1536 Franklin Rd, Highlands, NC 28741, USA",http://www.ontheverandah.com/,35.0633358,-83.2198778,ChIJvcQMdaYfWYgRUS0yYhaC6Qg,https://maps.google.com/?cid=642187454525353297&g_mp=Cidnb29nbGUubWFwcy5wbGFjZXMudjEuUGxhY2VzLlNlYXJjaFRleHQQAhgEIAA,On The Verandah
Piccolina - Asheville,Asheville,NC,USA,"375 Depot St #101, Asheville, NC 28801, USA",https://www.piccolinaavl.com/,35.580527,-82.5646249,ChIJV9lv-9GNWYgRtLfz3I3DzXQ,https://maps.google.com/?cid=8416598292690089908&g_mp=Cidnb29nbGUubWFwcy5wbGFjZXMudjEuUGxhY2VzLlNlYXJjaFRleHQQAhgEIAA,Piccolina
Plant - Asheville,Asheville,NC,USA,"165 Merrimon Ave, Asheville, NC 28801, USA",http://plantisfood.com/,35.6046996,-82.552843,ChIJfciRPa_0WYgR6UbEhYeaQmo,https://maps.google.com/?cid=7656852223338759913&g_mp=Cidnb29nbGUubWFwcy5wbGFjZXMudjEuUGxhY2VzLlNlYXJjaFRleHQQAhgEIAA,plant
Soprana Rooftop Cucina,Asheville,NC,USA,"192 Haywood St 7th Floor, Asheville, NC 28801, USA",https://sopranarooftop.com/?y_source=1_MTA0Mzk4OTYyMC03MTUtbG9jYXRpb24ud2Vic2l0ZQ%3D%3D,35.5955719,-82.5597817,ChIJp61wddXzWYgRaVC3z55AYNc,https://maps.google.com/?cid=15519475366752637033&g_mp=Cidnb29nbGUubWFwcy5wbGFjZXMudjEuUGxhY2VzLlNlYXJjaFRleHQQAhgEIAA,Soprana Rooftop Cucina
Strada Italiano,Asheville,NC,USA,"27 Broadway St, Asheville, NC 28801, USA",http://stradaasheville.com/,35.5962546,-82.5523779,ChIJr_iulVfzWYgRBSu341_Nmbs,https://maps.google.com/?cid=13518061568255273733&g_mp=Cidnb29nbGUubWFwcy5wbGFjZXMudjEuUGxhY2VzLlNlYXJjaFRleHQQAhgEIAA,Strada Italiano
Table Asheville,Asheville,NC,USA,"18 N Lexington Ave, Asheville, NC 28801, USA",http://tableasheville.com/,35.5956384,-82.5527167,ChIJ4SNUB1fzWYgRwH93GN90Mqo,https://maps.google.com/?cid=12263993236820295616&g_mp=Cidnb29nbGUubWFwcy5wbGFjZXMudjEuUGxhY2VzLlNlYXJjaFRleHQQAhgEIAA,Table Asheville
Tall John's,Asheville,NC,USA,"152 Montford Ave, Asheville, NC 28801, USA",https://www.talljohns.com/?utm_source=google&utm_medium=google_business&utm_campaign=google_maps_and_google_business,35.6004716,-82.5631098,ChIJDwv8xpeLWYgRSxBUQd6dzJg,https://maps.google.com/?cid=11010348766918348875&g_mp=Cidnb29nbGUubWFwcy5wbGFjZXMudjEuUGxhY2VzLlNlYXJjaFRleHQQAhgEIAA,Tall John's
The Admiral,Asheville,NC,USA,"400 Haywood Rd, Asheville, NC 28806, USA",http://theadmiralasheville.com/,35.5777658,-82.5798218,ChIJJXrtncCMWYgRPkNKLkRcR3E,https://maps.google.com/?cid=8162594297536463678&g_mp=Cidnb29nbGUubWFwcy5wbGFjZXMudjEuUGxhY2VzLlNlYXJjaFRleHQQAhgEIAA,The Admiral
The Bull and Beggar,Asheville,NC,USA,"37 Paynes Way #7, Asheville, NC 28801, USA",http://www.thebullandbeggar.com/,35.5865008,-82.5666875,ChIJNwSxIrKMWYgRFRhBQzL7I9A,https://maps.google.com/?cid=14998107377369159701&g_mp=Cidnb29nbGUubWFwcy5wbGFjZXMudjEuUGxhY2VzLlNlYXJjaFRleHQQAhgEIAA,The Bull and Beggar
The Draftsman,Asheville,NC,USA,"68 Patton Ave, Asheville, NC 28801, USA",https://thedraftsmanasheville.com/,35.594355,-82.5543493,ChIJievd2MPzWYgRU1JBmbL4U34,https://maps.google.com/?cid=9102892717804966483&g_mp=Cidnb29nbGUubWFwcy5wbGFjZXMudjEuUGxhY2VzLlNlYXJjaFRleHQQAhgEIAA,The Draftsman Bar + Lounge Asheville
The Lobster Trap,Asheville,NC,USA,"35 Patton Ave, Asheville, NC 28801, USA",http://www.thelobstertrap.biz/,35.5948302,-82.5532023,ChIJhRm6BVfzWYgRevtV4PSjvlQ,https://maps.google.com/?cid=6106498416892050298&g_mp=Cidnb29nbGUubWFwcy5wbGFjZXMudjEuUGxhY2VzLlNlYXJjaFRleHQQAhgEIAA,The Lobster Trap
The Montford Rooftop Bar,Asheville,NC,USA,"199 Haywood St, Asheville, NC 28801, USA",https://themontford.com/?y_source=1_MTAyNDIwNDI1Ny03MTUtbG9jYXRpb24ud2Vic2l0ZQ%3D%3D,35.5960888,-82.56003,ChIJL-fnBFXzWYgRD3iCWI0W5Fw,https://maps.google.com/?cid=6693499742510544911&g_mp=Cidnb29nbGUubWFwcy5wbGFjZXMudjEuUGxhY2VzLlNlYXJjaFRleHQQAhgEIAA,The Montford Rooftop Bar
The Observatory,Asheville,NC,USA,"68 Patton Ave, Asheville, NC 28801, USA",https://theobservatoryasheville.com/,35.594355,-82.5543493,ChIJLYObeyHzWYgRMK5nUQWM7-4,https://maps.google.com/?cid=17217133854929169968&g_mp=Cidnb29nbGUubWFwcy5wbGFjZXMudjEuUGxhY2VzLlNlYXJjaFRleHQQAhgEIAA,The Observatory Rooftop Bar + Lounge
The Refinery,Asheville,NC,USA,"35 Eagle St, Asheville, NC 28801, USA",https://www.foundryasheville.com/dining-asheville-nc,35.5939602,-82.5498107,ChIJHaeaVePzWYgRbVWXookk5fI,https://maps.google.com/?cid=17502435700402247021&g_mp=Cidnb29nbGUubWFwcy5wbGFjZXMudjEuUGxhY2VzLlNlYXJjaFRleHQQAhgEIAA,The Refinery
The Watch Kitchen + Spirits,Asheville,NC,USA,"68 Patton Ave, Asheville, NC 28801, USA",https://www.thewatchasheville.com/,35.594355,-82.5543493,ChIJ4ebh9EfzWYgREClgjwDJ1SI,https://maps.google.com/?cid=2510133371571546384&g_mp=Cidnb29nbGUubWFwcy5wbGFjZXMudjEuUGxhY2VzLlNlYXJjaFRleHQQAhgEIAA,The Watch Kitchen + Spirits
Xico Asheville,Asheville,NC,USA,"175 Biltmore Ave, Asheville, NC 28801, USA",https://xicoasheville.com/,35.5890481,-82.551955,ChIJPyesvtTzWYgRut_AxKaRuxk,https://maps.google.com/?cid=1854235817044664250&g_mp=Cidnb29nbGUubWFwcy5wbGFjZXMudjEuUGxhY2VzLlNlYXJjaFRleHQQAhgEIAA,Xico
Zambra,Asheville,NC,USA,"85 W Walnut St, Asheville, NC 28801, USA",http://www.zambratapas.com/,35.5961303,-82.5546951,ChIJAYQIRVbzWYgRLfw9I013MkQ,https://maps.google.com/?cid=4914121316602084397&g_mp=Cidnb29nbGUubWFwcy5wbGFjZXMudjEuUGxhY2VzLlNlYXJjaFRleHQQAhgEIAA,Zambra
Bar Juillet,Ashland,OR,USA,"47 N Main St, Ashland, OR 97520, USA",http://www.barjuillet.com/,42.1975994,-122.7158805,ChIJnZkk519zz1QRE6E7bobp8vI,https://maps.google.com/?cid=17506311465126830355&g_mp=Cidnb29nbGUubWFwcy5wbGFjZXMudjEuUGxhY2VzLlNlYXJjaFRleHQQAhgEIAA,Bar Juillet
Ajax Tavern,Aspen,CO,USA,"685 E Durant Ave, Aspen, CO 81611, USA",https://www.thelittlenell.com/dine/ajax-tavern,39.1865426,-106.8179095,ChIJRXICg9g7QIcRBB8na-Y0PqE,https://maps.google.com/?cid=11618782252907306756&g_mp=Cidnb29nbGUubWFwcy5wbGFjZXMudjEuUGxhY2VzLlNlYXJjaFRleHQQAhgEIAA,Ajax Tavern
Bear Den Bistro Aspen,Aspen,CO,USA,"301 E Hopkins Ave Unit #101, Aspen, CO 81611, USA",https://beardenaspen.com/,39.1898614,-106.8206044,ChIJndEpRK05QIcRLyyuta6fnMw,https://maps.google.com/?cid=14743834852825377839&g_mp=Cidnb29nbGUubWFwcy5wbGFjZXMudjEuUGxhY2VzLlNlYXJjaFRleHQQAhgEIAA,Bear Den Aspen
Duemani,Aspen,CO,USA,"216 S Monarch St, Aspen, CO 81611, USA",http://www.duemaniaspen.com/,39.1897315,-106.8206333,ChIJFXvXKX05QIcRoff-fncmsqE,https://maps.google.com/?cid=11651417480634496929&g_mp=Cidnb29nbGUubWFwcy5wbGFjZXMudjEuUGxhY2VzLlNlYXJjaFRleHQQAhgEIAA,Duemani
Element 47,Aspen,CO,USA,"675 E Durant Ave, Aspen, CO 81611, USA",https://www.thelittlenell.com/dine/element-47,39.1863817,-106.8174229,ChIJsVBYgtg7QIcRbFTbGd2uB9c,https://maps.google.com/?cid=15494545307636290668&g_mp=Cidnb29nbGUubWFwcy5wbGFjZXMudjEuUGxhY2VzLlNlYXJjaFRleHQQAhgEIAA,Element 47
Kappo by Tron,Aspen,CO,USA,"614 E Cooper Ave, Aspen, CO 81611, USA",http://www.wayan-aspen.com/,39.1878837,-106.8172585,ChIJQbAcsZw7QIcRvO_BcKbUel0,https://maps.google.com/?cid=6735930004007415740&g_mp=Cidnb29nbGUubWFwcy5wbGFjZXMudjEuUGxhY2VzLlNlYXJjaFRleHQQAhgEIAA,Wayan Aspen
Mawa's Kitchen,Aspen,CO,USA,"305 Aspen Airport Business Center F, Aspen, CO 81611, USA",https://www.mawaskitchen.com/,39.2196826,-106.8599196,ChIJgRLdW6E5QIcRzz3qRJ08eQM,https://maps.google.com/?cid=250297900459507151&g_mp=Cidnb29nbGUubWFwcy5wbGFjZXMudjEuUGxhY2VzLlNlYXJjaFRleHQQAhgEIAA,Mawa's Kitchen
Mawita,Aspen,CO,USA,"305 Aspen Airport Business Center # J, Aspen, CO 81611, USA",https://www.mawitaaspen.com/,39.2197194,-106.8600838,ChIJV1qKtM85QIcRTOj4IcibX5g,https://maps.google.com/?cid=10979665700418283596&g_mp=Cidnb29nbGUubWFwcy5wbGFjZXMudjEuUGxhY2VzLlNlYXJjaFRleHQQAhgEIAA,Mawita Tapas & Wine
"Mt. Rubirosa, Presented by Resy",Aspen,CO,USA,"501 E Dean St, Aspen, CO 81611, USA",https://www.mtrubirosa.com/,39.1863579,-106.8190525,ChIJ4ZNXE445QIcRC7wN9b47L-g,https://maps.google.com/?cid=16730656832045825035&g_mp=Cidnb29nbGUubWFwcy5wbGFjZXMudjEuUGxhY2VzLlNlYXJjaFRleHQQAhgEIAA,Mt. Rubirosa
Prospect,Aspen,CO,USA,"330 E Main St, Aspen, CO 81611, USA",https://auberge.com/hotel-jerome/dine/prospect/,39.1911143,-106.8195302,ChIJabayDX05QIcRVN-CDF94tCw,https://maps.google.com/?cid=3221331983103876948&g_mp=Cidnb29nbGUubWFwcy5wbGFjZXMudjEuUGxhY2VzLlNlYXJjaFRleHQQAhgEIAA,Prospect at Hotel Jerome
Sant Ambroeus Aspen Restaurant,Aspen,CO,USA,"201 E Main St, Aspen, CO 81611, USA",https://santambroeus.com/,39.1908715,-106.8214911,ChIJzZYYm9M5QIcR6Cv9V_oNNY4,https://maps.google.com/?cid=10247111896020626408&g_mp=Cidnb29nbGUubWFwcy5wbGFjZXMudjEuUGxhY2VzLlNlYXJjaFRleHQQAhgEIAA,Sant Ambroeus Aspen Restaurant
The Jade Room,Aspen,CO,USA,"330 E Main St, Aspen, CO 81611, USA",https://aubergeresorts.com/hoteljerome/dine/,39.1911143,-106.8195302,ChIJV5ddFAA5QIcRCuwudhGewdo,https://maps.google.com/?cid=15763053968607865866&g_mp=Cidnb29nbGUubWFwcy5wbGFjZXMudjEuUGxhY2VzLlNlYXJjaFRleHQQAhgEIAA,The Garden at Hotel Jerome
The Little Nell Wine Cellar,Aspen,CO,USA,"675 E Durant Ave, Aspen, CO 81611, USA",https://www.thelittlenell.com/dine/wine-bar,39.1867821,-106.8177946,ChIJ7WBH8RM7QIcRiaHU3FHuU6E,https://maps.google.com/?cid=11624897098538066313&g_mp=Cidnb29nbGUubWFwcy5wbGFjZXMudjEuUGxhY2VzLlNlYXJjaFRleHQQAhgEIAA,The Wine Bar
The Living Room at Hotel Jerome,Aspen,CO,USA,"330 E Main St, Aspen, CO 81611, USA",https://auberge.com/hoteljerome/dine/the-living-room/,39.1911143,-106.8195302,ChIJLapJq-M5QIcRaDZDSTRup7A,https://maps.google.com/?cid=12729264042632492648&g_mp=Cidnb29nbGUubWFwcy5wbGFjZXMudjEuUGxhY2VzLlNlYXJjaFRleHQQAhgEIAA,The Living Room
The Snow Lodge,Aspen,CO,USA,"315 E Dean St, Aspen, CO 81611, USA",https://www.thesnowlodge.com/,39.1866949,-106.8208635,ChIJ6e5PAGM5QIcRBlKhvv-UkYk,https://maps.google.com/?cid=9912868080954987014&g_mp=Cidnb29nbGUubWFwcy5wbGFjZXMudjEuUGxhY2VzLlNlYXJjaFRleHQQAhgEIAA,The Snow Lodge
Wayan Aspen,Aspen,CO,USA,"614 E Cooper Ave, Aspen, CO 81611, USA",http://www.wayan-aspen.com/,39.1878837,-106.8172585,ChIJQbAcsZw7QIcRvO_BcKbUel0,https://maps.google.com/?cid=6735930004007415740&g_mp=Cidnb29nbGUubWFwcy5wbGFjZXMudjEuUGxhY2VzLlNlYXJjaFRleHQQAhgEIAA,Wayan Aspen
5&10,Athens,GA,USA,"1073 S Milledge Ave, Athens, GA 30605, USA",http://fiveandten.com/,33.941529,-83.3872424,ChIJ-ciHJgVt9ogRcpJWPHBuZ1g,https://maps.google.com/?cid=6370181626266554994&g_mp=Cidnb29nbGUubWFwcy5wbGFjZXMudjEuUGxhY2VzLlNlYXJjaFRleHQQAhgEIAA,Five and Ten
Bistro Off Broad,Athens,GA,USA,"16 E Candler St, Winder, GA 30680, USA",http://www.bistrooffbroad.com/,33.9925642,-83.7195069,ChIJj_5vA4Dd9YgRFeH5QI4fFSw,https://maps.google.com/?cid=3176479808015687957&g_mp=Cidnb29nbGUubWFwcy5wbGFjZXMudjEuUGxhY2VzLlNlYXJjaFRleHQQAhgEIAA,Bistro Off Broad
George's Lowcountry Table,Athens,GA,USA,"420 Macon Hwy, Athens, GA 30606, USA",https://www.georgeslowcountrytable.com/,33.9211122,-83.3835051,ChIJr0jaI1Ns9ogRa_s8sLP7jB0,https://maps.google.com/?cid=2129353473013906283&g_mp=Cidnb29nbGUubWFwcy5wbGFjZXMudjEuUGxhY2VzLlNlYXJjaFRleHQQAhgEIAA,George's Lowcountry Table
Last Resort Grill,Athens,GA,USA,"174-184 W Clayton St, Athens, GA 30601, USA",http://lastresortgrill.com/,33.9581604,-83.3784027,ChIJ638UUd9s9ogR9Nc50WwAEWs,https://maps.google.com/?cid=7714948104029067252&g_mp=Cidnb29nbGUubWFwcy5wbGFjZXMudjEuUGxhY2VzLlNlYXJjaFRleHQQAhgEIAA,Last Resort Grill
Porterhouse Grill,Athens,GA,USA,"459 E Broad St, Athens, GA 30601, USA",https://www.porterhousegrillathens.com/,33.9582834,-83.3733696,ChIJvQuSANxs9ogRhQQRXSJNW3A,https://maps.google.com/?cid=8096149565114221701&g_mp=Cidnb29nbGUubWFwcy5wbGFjZXMudjEuUGxhY2VzLlNlYXJjaFRleHQQAhgEIAA,Porterhouse Grill
Pretty Boy,Athens,GA,USA,"247 Prince Ave, Athens, GA 30601, USA",https://www.prettyboyathens.com/,33.9600227,-83.3828224,ChIJF8839mBt9ogRB9yM6wbg8eU,https://maps.google.com/?cid=16569270824399068167&g_mp=Cidnb29nbGUubWFwcy5wbGFjZXMudjEuUGxhY2VzLlNlYXJjaFRleHQQAhgEIAA,Pretty Boy
Puma Yu's,Athens,GA,USA,"355 Oneta St Suite D400A, Athens, GA 30601, USA",http://www.pumayus.com/,33.9701035,-83.3967612,ChIJc20OrE1t9ogRoNAB3a3VJOU,https://maps.google.com/?cid=16511557076561023136&g_mp=Cidnb29nbGUubWFwcy5wbGFjZXMudjEuUGxhY2VzLlNlYXJjaFRleHQQAhgEIAA,Puma Yu's
Savannah Room,Athens,GA,USA,"1197 S Lumpkin St, Athens, GA 30602, USA",https://www.hotel.uga.edu/dining-in-athens/savannah-room,33.9445595,-83.3776889,ChIJs2LCgB1t9ogRyAXPuqUMV8g,https://maps.google.com/?cid=14436021036502681032&g_mp=Cidnb29nbGUubWFwcy5wbGFjZXMudjEuUGxhY2VzLlNlYXJjaFRleHQQAhgEIAA,Savannah Room Restaurant
Slater's Steakhouse,Athens,GA,USA,"1653 S Lumpkin St, Athens, GA 30606, USA",http://www.slatersathens.com/,33.9384788,-83.3868517,ChIJ5Sp1cPNt9ogRSuPjEoE-k44,https://maps.google.com/?cid=10273623899050861386&g_mp=Cidnb29nbGUubWFwcy5wbGFjZXMudjEuUGxhY2VzLlNlYXJjaFRleHQQAhgEIAA,Slater's Steakhouse
South Kitchen + Bar,Athens,GA,USA,"247 E Washington St Ste 101, Athens, GA 30601, USA",https://www.southkitchenbar.com/,33.9597505,-83.375275,ChIJwxgkPtls9ogRMcwxz_AjZp8,https://maps.google.com/?cid=11485907416830299185&g_mp=Cidnb29nbGUubWFwcy5wbGFjZXMudjEuUGxhY2VzLlNlYXJjaFRleHQQAhgEIAA,South Kitchen + Bar
The National,Athens,GA,USA,"232 W Hancock Ave, Athens, GA 30601, USA",http://www.thenationalrestaurant.com/,33.9595443,-83.3795976,ChIJxwcuWydt9ogRKRJ1NoDjHhY,https://maps.google.com/?cid=1593961457944695337&g_mp=Cidnb29nbGUubWFwcy5wbGFjZXMudjEuUGxhY2VzLlNlYXJjaFRleHQQAhgEIAA,The National
ZZ & Simone's,Athens,GA,USA,"1540 S Lumpkin St Suite 4, Athens, GA 30605, USA",http://www.zzandsimones.com/,33.9411497,-83.3858287,ChIJoeSy7ZVt9ogR3eBbtYn2ewE,https://maps.google.com/?cid=106950087486988509&g_mp=Cidnb29nbGUubWFwcy5wbGFjZXMudjEuUGxhY2VzLlNlYXJjaFRleHQQAhgEIAA,ZZ & Simone's
5Church Buckhead,Atlanta,GA,USA,"3379 Peachtree Rd NE STE. 125, Atlanta, GA 30326, USA",http://buckhead.5church-atlanta.com/,33.8478359,-84.3657877,ChIJLUV41JEP9YgRVaViUvQq9Ak,https://maps.google.com/?cid=717245469501334869&g_mp=Cidnb29nbGUubWFwcy5wbGFjZXMudjEuUGxhY2VzLlNlYXJjaFRleHQQAhgEIAA,5Church Buckhead
5Church Midtown,Atlanta,GA,USA,"1197 Peachtree St NE #528, Atlanta, GA 30361, USA",http://midtown.5church-atlanta.com/,33.7870834,-84.3828185,ChIJvSuOY0QE9YgReHlGmG84Sno,https://maps.google.com/?cid=8811917672851077496&g_mp=Cidnb29nbGUubWFwcy5wbGFjZXMudjEuUGxhY2VzLlNlYXJjaFRleHQQAhgEIAA,5Church Midtown
7th House,Atlanta,GA,USA,"565 Northside Dr SW suite a103, Atlanta, GA 30310, USA",http://7th.house/,33.7401887,-84.4088217,ChIJXe3FOKID9YgRKBaOrHSLYiw,https://maps.google.com/?cid=3198272018613933608&g_mp=Cidnb29nbGUubWFwcy5wbGFjZXMudjEuUGxhY2VzLlNlYXJjaFRleHQQAhgEIAA,7th House
a mano,Atlanta,GA,USA,"587 Ralph McGill Blvd NE, Atlanta, GA 30312, USA",https://www.amanoatl.com/,33.7638344,-84.3679659,ChIJM1hLzg4E9YgRicMhtt2qI5k,https://maps.google.com/?cid=11034851381208007561&g_mp=Cidnb29nbGUubWFwcy5wbGFjZXMudjEuUGxhY2VzLlNlYXJjaFRleHQQAhgEIAA,a mano
AltaToro,Atlanta,GA,USA,"33 Peachtree Pl NE, Atlanta, GA 30309, USA",http://www.altatoro.com/,33.780567,-84.387098,ChIJCztBntwF9YgRaraSa1SOtus,https://maps.google.com/?cid=16984919537907578474&g_mp=Cidnb29nbGUubWFwcy5wbGFjZXMudjEuUGxhY2VzLlNlYXJjaFRleHQQAhgEIAA,AltaToro
Apt 4B,Atlanta,GA,USA,"2293 Peachtree Rd Unit B, Atlanta, GA 30309, USA",http://apt4batl.com/,33.8168513,-84.3894596,ChIJBX1ByHkF9YgRcdOFeaki--E,https://maps.google.com/?cid=16283646988971791217&g_mp=Cidnb29nbGUubWFwcy5wbGFjZXMudjEuUGxhY2VzLlNlYXJjaFRleHQQAhgEIAA,APT 4B
Aria,Atlanta,GA,USA,"490 East Paces Ferry Rd NE, Atlanta, GA 30305, USA",http://www.aria-atl.com/,33.8387184,-84.3719024,ChIJ2UR5rfMF9YgR1k2zHnrt8qo,https://maps.google.com/?cid=12318169039568588246&g_mp=Cidnb29nbGUubWFwcy5wbGFjZXMudjEuUGxhY2VzLlNlYXJjaFRleHQQAhgEIAA,Aria
Ashland at Loews Atlanta Hotel,Atlanta,GA,USA,"1065 Peachtree St NE, Atlanta, GA 30309, USA",https://www.ashlandatlanta.com/,33.7835524,-84.3833196,ChIJe3mxZAAF9YgRu21hj9Ksxks,https://maps.google.com/?cid=5460241618581941691&g_mp=Cidnb29nbGUubWFwcy5wbGFjZXMudjEuUGxhY2VzLlNlYXJjaFRleHQQAhgEIAA,Ashland
Atkins Park Restaurant & Bar - Virginia Highland,Atlanta,GA,USA,"794 N Highland Ave NE, Atlanta, GA 30306, USA",https://www.atkinspark.com/,33.7761465,-84.3527672,ChIJx-nO9KAG9YgRBm2RWDcZbqE,https://maps.google.com/?cid=11632262613044391174&g_mp=Cidnb29nbGUubWFwcy5wbGFjZXMudjEuUGxhY2VzLlNlYXJjaFRleHQQAhgEIAA,Atkins Park Restaurant & Bar - Virginia Highland
Auburn Angel,Atlanta,GA,USA,"302 Auburn Ave NE, Atlanta, GA 30303, USA",http://auburnangel.com/,33.7556294,-84.3777752,ChIJ8TUEKwAD9YgRyMNBdYwhNkc,https://maps.google.com/?cid=5131325712581641160&g_mp=Cidnb29nbGUubWFwcy5wbGFjZXMudjEuUGxhY2VzLlNlYXJjaFRleHQQAhgEIAA,Auburn Angel
B.O.T / Bar of Thailand,Atlanta,GA,USA,"1020 Piedmont Ave NE A, Atlanta, GA 30309, USA",http://barofthailand.com/,33.7828381,-84.3802511,ChIJGfHBf9QF9YgRdThVnQLmM2c,https://maps.google.com/?cid=7436540308622751861&g_mp=Cidnb29nbGUubWFwcy5wbGFjZXMudjEuUGxhY2VzLlNlYXJjaFRleHQQAhgEIAA,B.O.T (Bar of Thailand)
Bacchanalia,Atlanta,GA,USA,"1460 Ellsworth Industrial Blvd NW Suite 1, Atlanta, GA 30318, USA",http://www.starprovisions.com/bacchanalia/,33.7946028,-84.4272222,ChIJX7jCB-wE9YgRNyeBypQUGaE,https://maps.google.com/?cid=11608332143809341239&g_mp=Cidnb29nbGUubWFwcy5wbGFjZXMudjEuUGxhY2VzLlNlYXJjaFRleHQQAhgEIAA,Bacchanalia
Bangkok Thai,Atlanta,GA,USA,"1492 Piedmont Ave NE, Atlanta, GA 30309, USA",https://www.bangkokthaiatl.com/,33.7957003,-84.3708211,ChIJxR34pDYE9YgR05ZAWxYUkTs,https://maps.google.com/?cid=4292234006113588947&g_mp=Cidnb29nbGUubWFwcy5wbGFjZXMudjEuUGxhY2VzLlNlYXJjaFRleHQQAhgEIAA,Bangkok Thai Restaurant
Banshee,Atlanta,GA,USA,"1271 Glenwood Ave SE, Atlanta, GA 30316, USA",http://banshee-atl.com/,33.7399618,-84.3459272,ChIJeTP7sxsB9YgRxlN9qnOSUgE,https://maps.google.com/?cid=95299567607436230&g_mp=Cidnb29nbGUubWFwcy5wbGFjZXMudjEuUGxhY2VzLlNlYXJjaFRleHQQAhgEIAA,Banshee
"Benihana - Atlanta - Buckhead, GA",Atlanta,GA,USA,"2143 Peachtree Rd, Atlanta, GA 30309, USA",https://www.benihana.com/,33.812736,-84.3915197,ChIJLTF2xqgF9YgRLv44z8PuzZ4,https://maps.google.com/?cid=11443064752980950574&g_mp=Cidnb29nbGUubWFwcy5wbGFjZXMudjEuUGxhY2VzLlNlYXJjaFRleHQQAhgEIAA,Benihana - Atlanta (Buckhead)
Bocado,Atlanta,GA,USA,"6300 Powers Ferry Rd NW Suite 400, Atlanta, GA 30339, USA",http://www.bocadoatlanta.com/,33.9048891,-84.4276985,ChIJp1zzA5ME9YgRAnTbCVEQNJo,https://maps.google.com/?cid=11111524120873628674&g_mp=Cidnb29nbGUubWFwcy5wbGFjZXMudjEuUGxhY2VzLlNlYXJjaFRleHQQAhgEIAA,Bocado
BoccaLupo,Atlanta,GA,USA,"753 Edgewood Ave NE, Atlanta, GA 30307, USA",http://boccalupoatl.com/,33.7546962,-84.3627627,ChIJv3AGUvgD9YgRoeQkBXeuLHM,https://maps.google.com/?cid=8299200039547626657&g_mp=Cidnb29nbGUubWFwcy5wbGFjZXMudjEuUGxhY2VzLlNlYXJjaFRleHQQAhgEIAA,BoccaLupo
Bomb Biscuit Co.,Atlanta,GA,USA,"519 Memorial Dr SE UNIT B2, Atlanta, GA 30312, USA",http://www.bombbiscuitatl.com/,33.7461492,-84.3704637,ChIJ_RsvOroF9YgRDkInxsTJmJM,https://maps.google.com/?cid=10635472367010660878&g_mp=Cidnb29nbGUubWFwcy5wbGFjZXMudjEuUGxhY2VzLlNlYXJjaFRleHQQAhgEIAA,Bomb Biscuit Atlanta
Bon Ton,Atlanta,GA,USA,"674 Myrtle St NE, Atlanta, GA 30308, USA",http://bontonatl.com/,33.7729895,-84.3804087,ChIJIa9sJ2wE9YgRG9lUqCTz5_Y,https://maps.google.com/?cid=17791456191718938907&g_mp=Cidnb29nbGUubWFwcy5wbGFjZXMudjEuUGxhY2VzLlNlYXJjaFRleHQQAhgEIAA,Bon Ton
Boone's,Atlanta,GA,USA,"2205 Northside Dr NW, Atlanta, GA 30305, USA",http://boonesatl.com/,33.8150041,-84.4057057,ChIJkx4GmaIF9YgRzhX8ZZwT-Sw,https://maps.google.com/?cid=3240642969316627918&g_mp=Cidnb29nbGUubWFwcy5wbGFjZXMudjEuUGxhY2VzLlNlYXJjaFRleHQQAhgEIAA,Boone's
Boqueria Colony Square,Atlanta,GA,USA,"1221 Peachtree St NE Suite 110, Atlanta, GA 30361, USA",https://boqueriarestaurant.com/location/atl-colony-square/?utm_source=organic&utm_medium=gmb,33.7881477,-84.3830177,ChIJRVJQrCQF9YgRk5HPTo_VOok,https://maps.google.com/?cid=9888450743324610963&g_mp=Cidnb29nbGUubWFwcy5wbGFjZXMudjEuUGxhY2VzLlNlYXJjaFRleHQQAhgEIAA,Boqueria Colony Sqaure
Bovino After Dark,Atlanta,GA,USA,"1000 White St SW, Atlanta, GA 30310, USA",http://www.bovinoafterdark.com/,33.7297638,-84.4183107,ChIJ44aHHhYD9YgRF_yShhkJumw,https://maps.google.com/?cid=7834584507001011223&g_mp=Cidnb29nbGUubWFwcy5wbGFjZXMudjEuUGxhY2VzLlNlYXJjaFRleHQQAhgEIAA,Bovino after dark
Boxcar,Atlanta,GA,USA,"1000 White St SW, Atlanta, GA 30310, USA",https://www.boxcaratl.com/?utm_source=google&utm_medium=local&utm_campaign=gmb,33.7299531,-84.4186258,ChIJxa3lFXwD9YgRMGqINueoolw,https://maps.google.com/?cid=6675083308722317872&g_mp=Cidnb29nbGUubWFwcy5wbGFjZXMudjEuUGxhY2VzLlNlYXJjaFRleHQQAhgEIAA,Boxcar at Hop City West End
Brasserie Lundi,Atlanta,GA,USA,"1375 Peachtree St NE, Atlanta, GA 30309, USA",https://brasserielundi.com/,33.7926084,-84.3856556,ChIJ6ama0JUF9YgRH_SpiaIuG6o,https://maps.google.com/?cid=12257442086448133151&g_mp=Cidnb29nbGUubWFwcy5wbGFjZXMudjEuUGxhY2VzLlNlYXJjaFRleHQQAhgEIAA,Brasserie Lundi
Bread & Butterfly,Atlanta,GA,USA,"290 Elizabeth St NE F, Atlanta, GA 30307, USA",http://www.bread-and-butterfly.com/,33.7624293,-84.3581661,ChIJHwhNYAEE9YgRCs-R7L-_uWI,https://maps.google.com/?cid=7113927917437046538&g_mp=Cidnb29nbGUubWFwcy5wbGFjZXMudjEuUGxhY2VzLlNlYXJjaFRleHQQAhgEIAA,Bread & Butterfly
Brick and Mortar,Atlanta,GA,USA,"225 Rogers St NE #11, Atlanta, GA 30317, USA",http://brickandmortaratl.com/,33.7596244,-84.3289304,ChIJ6UUQSsEH9YgRObcHY7ENUDA,https://maps.google.com/?cid=3481297567479215929&g_mp=Cidnb29nbGUubWFwcy5wbGFjZXMudjEuUGxhY2VzLlNlYXJjaFRleHQQAhgEIAA,Brick and Mortar
Brush Sushi,Atlanta,GA,USA,"3009 Peachtree Rd NE #140, Atlanta, GA 30305, USA",https://brushatl.com/,33.837404,-84.3809233,ChIJBf-1gFQF9YgRKggL2q5e-IM,https://maps.google.com/?cid=9509454718268278826&g_mp=Cidnb29nbGUubWFwcy5wbGFjZXMudjEuUGxhY2VzLlNlYXJjaFRleHQQAhgEIAA,Brush Sushi
Butcher & Brew - Halcyon,Atlanta,GA,USA,"6690 Town Square, #410, Alpharetta, GA 30005, USA",https://www.butcherandbrewshop.com/,34.1105588,-84.2231609,ChIJQ9DACiOf9YgRGBVlSZmbPak,https://maps.google.com/?cid=12195074448652834072&g_mp=Cidnb29nbGUubWFwcy5wbGFjZXMudjEuUGxhY2VzLlNlYXJjaFRleHQQAhgEIAA,Butcher & Brew Halcyon
Carbonara Trattoria,Atlanta,GA,USA,"5499 Chamblee Dunwoody Rd, Dunwoody, GA 30338, USA",https://www.carbonaratrattoria.com/,33.9480634,-84.3336326,ChIJ225T0-kL9YgRwKzz2xVlY5E,https://maps.google.com/?cid=10476328302752804032&g_mp=Cidnb29nbGUubWFwcy5wbGFjZXMudjEuUGxhY2VzLlNlYXJjaFRleHQQAhgEIAA,Carbonara Trattoria
Casa Nuova Italian Restaurant,Atlanta,GA,USA,"5670 Atlanta Hwy A1, Alpharetta, GA 30004, USA",http://www.casanuovarestaurant.com/,34.1445306,-84.252497,ChIJF0NeEZmd9YgRPg240lWn-SM,https://maps.google.com/?cid=2592287047577767230&g_mp=Cidnb29nbGUubWFwcy5wbGFjZXMudjEuUGxhY2VzLlNlYXJjaFRleHQQAhgEIAA,Casa Nuova Italian Restaurant
Casa Tropicale,Atlanta,GA,USA,"1235 Chattahoochee Ave NW Suite 130, Atlanta, GA 30318, USA",http://latropicalatl.com/,33.802974,-84.4282479,ChIJfQAX1uAF9YgRqmtjzJx4QO4,https://maps.google.com/?cid=17167854394375629738&g_mp=Cidnb29nbGUubWFwcy5wbGFjZXMudjEuUGxhY2VzLlNlYXJjaFRleHQQAhgEIAA,La Tropical
Chirori,Atlanta,GA,USA,"349 14th St NW C-1, Atlanta, GA 30318, USA",http://chiroriatl.com/,33.7863418,-84.3983721,ChIJ21oRdtQF9YgRKgxsfZ1Y5xc,https://maps.google.com/?cid=1722442815929846826&g_mp=Cidnb29nbGUubWFwcy5wbGFjZXMudjEuUGxhY2VzLlNlYXJjaFRleHQQAhgEIAA,Chirori - Omakase & Sushi
Cinco Mexican Cantina - Akers,Atlanta,GA,USA,"2851 Akers Mill Rd SE, Atlanta, GA 30339, USA",https://www.cincomexicancantinaga.com/,33.8831062,-84.4616202,ChIJF3-Xy0cQ9YgRlg9eJyKkrgI,https://maps.google.com/?cid=193272300619829142&g_mp=Cidnb29nbGUubWFwcy5wbGFjZXMudjEuUGxhY2VzLlNlYXJjaFRleHQQAhgEIAA,Cinco Mexican Cantina
Citizen Soul,Atlanta,GA,USA,"60 S Main St, Alpharetta, GA 30009, USA",http://www.citizensoul.com/,34.0739432,-84.2944954,ChIJPXocwct19YgR8v02UYuc23c,https://maps.google.com/?cid=8636668832590003698&g_mp=Cidnb29nbGUubWFwcy5wbGFjZXMudjEuUGxhY2VzLlNlYXJjaFRleHQQAhgEIAA,Citizen Soul
City Pharmacy,Atlanta,GA,USA,"1105 Church St, Covington, GA 30014, USA",http://citypharmacycov.com/,33.5967085,-83.8592062,ChIJ20YvIGM09IgR0l0l5SducEg,https://maps.google.com/?cid=5219793085749616082&g_mp=Cidnb29nbGUubWFwcy5wbGFjZXMudjEuUGxhY2VzLlNlYXJjaFRleHQQAhgEIAA,City Pharmacy
City Winery Atlanta Restaurant & Wine Bar,Atlanta,GA,USA,"Ponce City Market, 650 North Avenue NE, Atlanta, GA 30308, USA",https://citywinery.com/pages/locations/atlanta,33.7716908,-84.3668292,ChIJ8cEkDhEE9YgRldtogB5hjMY,https://maps.google.com/?cid=14306916899880491925&g_mp=Cidnb29nbGUubWFwcy5wbGFjZXMudjEuUGxhY2VzLlNlYXJjaFRleHQQAhgEIAA,City Winery Atlanta
CRU East Atlanta,Atlanta,GA,USA,"380 Flat Shoals Ave SE, Atlanta, GA 30316, USA",https://www.crulounge.com/,33.74353,-84.348453,ChIJzx7c6gEB9YgR2n2QFaMg8xw,https://maps.google.com/?cid=2086046937216220634&g_mp=Cidnb29nbGUubWFwcy5wbGFjZXMudjEuUGxhY2VzLlNlYXJjaFRleHQQAhgEIAA,CRU EAV - East Atlanta Village
CRU Edgewood,Atlanta,GA,USA,"367 Edgewood Ave SE, Atlanta, GA 30312, USA",http://www.crulounge.com/,33.7542181,-84.3756489,ChIJjQxRkt4D9YgRd-J9worEdR4,https://maps.google.com/?cid=2194876493660545655&g_mp=Cidnb29nbGUubWFwcy5wbGFjZXMudjEuUGxhY2VzLlNlYXJjaFRleHQQAhgEIAA,CRU Lounge - Edgewood
Cru Peters Street,Atlanta,GA,USA,"301 Peters St SW, Atlanta, GA 30313, USA",https://crulounge.com/,33.7465463,-84.4029834,ChIJ_Srg6nAD9YgRMjyuxBG5YQw,https://maps.google.com/?cid=892197687161404466&g_mp=Cidnb29nbGUubWFwcy5wbGFjZXMudjEuUGxhY2VzLlNlYXJjaFRleHQQAhgEIAA,CRU Peters Street
Cucina Rustica,Atlanta,GA,USA,"76 Forge Mill Rd, Morganton, GA 30560, USA",https://www.cucinarusticaga.com/,34.8919334,-84.2478103,ChIJw2__p3IIX4gRM-s0RRcYbY8,https://maps.google.com/?cid=10334943208109566771&g_mp=Cidnb29nbGUubWFwcy5wbGFjZXMudjEuUGxhY2VzLlNlYXJjaFRleHQQAhgEIAA,Cucina Rustica
Dantanna’s Surf and Turf,Atlanta,GA,USA,"3368 Peachtree Rd, Atlanta, GA 30326, USA",https://www.maggianos.com/locations/georgia/atlanta/3368-peachtree-rd.?utm_source=google&utm_medium=organic&utm_campaign=Maggianos,33.8484115,-84.3673553,ChIJFyduYFgP9YgRsb-T_vD8Fao,https://maps.google.com/?cid=12255980072952119217&g_mp=Cidnb29nbGUubWFwcy5wbGFjZXMudjEuUGxhY2VzLlNlYXJjaFRleHQQAhgEIAA,Maggiano's Little Italy
Delbar Middle Eastern - Buckhead,Atlanta,GA,USA,"3060 Peachtree Rd Suite R-160, Atlanta, GA 30305, USA",https://www.delbaratl.com/,33.8392397,-84.3807037,ChIJ7z716nQF9YgRtNSN2VX41IM,https://maps.google.com/?cid=9499490561637078196&g_mp=Cidnb29nbGUubWFwcy5wbGFjZXMudjEuUGxhY2VzLlNlYXJjaFRleHQQAhgEIAA,Delbar - Buckhead
Delbar Middle Eastern - Inman Park,Atlanta,GA,USA,"870 Inman Vlg Pkwy NE Suite 1, Atlanta, GA 30307, USA",https://www.delbaratl.com/,33.7615997,-84.3602065,ChIJ9WJXzEEF9YgRSTQ0utn07ww,https://maps.google.com/?cid=932232863858046025&g_mp=Cidnb29nbGUubWFwcy5wbGFjZXMudjEuUGxhY2VzLlNlYXJjaFRleHQQAhgEIAA,Delbar - Inman Park
Delbar Middle Eastern - Old Milton,Atlanta,GA,USA,"4120 Old Milton Pkwy, Alpharetta, GA 30005, USA",https://www.delbaratl.com/,34.0604747,-84.2390422,ChIJL5KpCU-f9YgRXZ1YrAkqj9o,https://maps.google.com/?cid=15748852642972474717&g_mp=Cidnb29nbGUubWFwcy5wbGFjZXMudjEuUGxhY2VzLlNlYXJjaFRleHQQAhgEIAA,Delbar - Old Milton
Der Biergarten,Atlanta,GA,USA,"300 Marietta St NW, Atlanta, GA 30313, USA",http://www.derbiergarten.com/,33.7618788,-84.3966924,ChIJm8uX1X8E9YgR_dEop3pVYsM,https://maps.google.com/?cid=14078909370392433149&g_mp=Cidnb29nbGUubWFwcy5wbGFjZXMudjEuUGxhY2VzLlNlYXJjaFRleHQQAhgEIAA,Der Biergarten
Divan Restaurant & Bar,Atlanta,GA,USA,"87 15th St NE, Atlanta, GA 30309, USA",http://www.divanatlanta.com/,33.7881155,-84.3846893,ChIJkf88G_QF9YgR-HGS9W9T_Uc,https://maps.google.com/?cid=5187394086127170040&g_mp=Cidnb29nbGUubWFwcy5wbGFjZXMudjEuUGxhY2VzLlNlYXJjaFRleHQQAhgEIAA,Divan Restaurant & Bar
Eight Sushi Lounge,Atlanta,GA,USA,"930 Howell Mill Rd NW, Atlanta, GA 30318, USA",https://eightsushiatl.com/,33.7799974,-84.4117628,ChIJxRgrY5ME9YgRcltyIvXeq8A,https://maps.google.com/?cid=13883435420725959538&g_mp=Cidnb29nbGUubWFwcy5wbGFjZXMudjEuUGxhY2VzLlNlYXJjaFRleHQQAhgEIAA,Eight Sushi Lounge
El Ponce,Atlanta,GA,USA,"939 Ponce De Leon Ave NE, Atlanta, GA 30306, USA",http://elponce.com/,33.7735305,-84.3566254,ChIJmXF-0x0E9YgR0zt8xCu9rXs,https://maps.google.com/?cid=8911987233313799123&g_mp=Cidnb29nbGUubWFwcy5wbGFjZXMudjEuUGxhY2VzLlNlYXJjaFRleHQQAhgEIAA,El Ponce
El Valle Kitchen and Bar,Atlanta,GA,USA,"800 Peachtree St NE STE F, Atlanta, GA 30308, USA",http://valleatl.com/,33.7763008,-84.3847755,ChIJA8WxaA8F9YgRYjlJmZJTJf8,https://maps.google.com/?cid=18385192942911961442&g_mp=Cidnb29nbGUubWFwcy5wbGFjZXMudjEuUGxhY2VzLlNlYXJjaFRleHQQAhgEIAA,El Valle Kitchen & Bar
El Viñedo Local,Atlanta,GA,USA,"730 Peachtree St NE Suite 100, Atlanta, GA 30308, USA",https://www.elvinedolocal.com/,33.7743893,-84.3849071,ChIJ8-AgkXwF9YgRerw_Yj02Fsw,https://maps.google.com/?cid=14706001270494182522&g_mp=Cidnb29nbGUubWFwcy5wbGFjZXMudjEuUGxhY2VzLlNlYXJjaFRleHQQAhgEIAA,El Viñedo Local
Elektra,Atlanta,GA,USA,"800 Rankin St NE, Atlanta, GA 30308, USA",https://elektraatlanta.com/?utm_source=google&utm_medium=Local&utm_campaign=Google+My+Business,33.768645,-84.3635148,ChIJgWDoEQAF9YgRjxGNqGmlpLo,https://maps.google.com/?cid=13449056260453110159&g_mp=Cidnb29nbGUubWFwcy5wbGFjZXMudjEuUGxhY2VzLlNlYXJjaFRleHQQAhgEIAA,Elektra
Elise,Atlanta,GA,USA,"1280 Peachtree St NE, Atlanta, GA 30309, USA",https://elise-atl.com/,33.7895157,-84.3856966,ChIJd7FTsG0F9YgRAgV6N2nBp9g,https://maps.google.com/?cid=15611659290949584130&g_mp=Cidnb29nbGUubWFwcy5wbGFjZXMudjEuUGxhY2VzLlNlYXJjaFRleHQQAhgEIAA,Elise
Fellaship Lounge,Atlanta,GA,USA,"110 Centennial Olympic Park Dr suite 102-104, Atlanta, GA 30313, USA",https://fellashipatl.com/,33.7521147,-84.3990442,ChIJ9XafIfoD9YgRmNokmm2SBjE,https://maps.google.com/?cid=3532671957153929880&g_mp=Cidnb29nbGUubWFwcy5wbGFjZXMudjEuUGxhY2VzLlNlYXJjaFRleHQQAhgEIAA,Fellaship.ATL
Fellows Cafe,Atlanta,GA,USA,"1088 Green St, Roswell, GA 30075, USA",http://fellowscafe.com/,34.0281548,-84.3601037,ChIJk_dXHz5z9YgRWR6mXBlSnfY,https://maps.google.com/?cid=17770449973555895897&g_mp=Cidnb29nbGUubWFwcy5wbGFjZXMudjEuUGxhY2VzLlNlYXJjaFRleHQQAhgEIAA,Fellows Cafe
Fritti,Atlanta,GA,USA,"309 N Highland Ave NE, Atlanta, GA 30307, USA",https://www.frittiatl.com/,33.7629393,-84.3577256,ChIJG_St3gME9YgRj_R9bXFmNyM,https://maps.google.com/?cid=2537609552400872591&g_mp=Cidnb29nbGUubWFwcy5wbGFjZXMudjEuUGxhY2VzLlNlYXJjaFRleHQQAhgEIAA,Fritti
Garden & Gun Club,Atlanta,GA,USA,"2605 Circle 75 Pkwy #410, Atlanta, GA 30339, USA",https://gardenandgunclub.com/,33.8893017,-84.4686038,ChIJIahcF04Q9YgRtB1Zj3pgcFE,https://maps.google.com/?cid=5868296393971015092&g_mp=Cidnb29nbGUubWFwcy5wbGFjZXMudjEuUGxhY2VzLlNlYXJjaFRleHQQAhgEIAA,Garden & Gun Club
Georgia Boy,Atlanta,GA,USA,"1043 Ponce De Leon Ave NE, Atlanta, GA 30306, USA",https://www.georgiaboyatl.com/,33.7734005,-84.3532352,ChIJKxidTKcG9YgRQSFm1vgTz_I,https://maps.google.com/?cid=17496225036827500865&g_mp=Cidnb29nbGUubWFwcy5wbGFjZXMudjEuUGxhY2VzLlNlYXJjaFRleHQQAhgEIAA,Georgia Boy
GiGi's Italian Kitchen,Atlanta,GA,USA,"1660 McLendon Ave NE, Atlanta, GA 30307, USA",http://gigisitaliankitchenatl.com/,33.7649888,-84.3332927,ChIJ6V1wKwsH9YgRgCz_PEnRWvM,https://maps.google.com/?cid=17535558211606621312&g_mp=Cidnb29nbGUubWFwcy5wbGFjZXMudjEuUGxhY2VzLlNlYXJjaFRleHQQAhgEIAA,Gigi's Italian Kitchen & Restaurant
Gio's Italian,Atlanta,GA,USA,"1099 Hemphill Ave NW, Atlanta, GA 30318, USA",https://littleitalia.com/#restaurants,33.7850219,-84.4058493,ChIJdYenZvIE9YgRH9kn2pjDA58,https://maps.google.com/?cid=11458216938223163679&g_mp=Cidnb29nbGUubWFwcy5wbGFjZXMudjEuUGxhY2VzLlNlYXJjaFRleHQQAhgEIAA,Gio’s Italian
Gunshow,Atlanta,GA,USA,"924 Garrett St, Atlanta, GA 30316, USA",http://www.gunshowatl.com/,33.7407083,-84.3580222,ChIJv7pmK-ID9YgRcrZZUrFw728,https://maps.google.com/?cid=8065789364536981106&g_mp=Cidnb29nbGUubWFwcy5wbGFjZXMudjEuUGxhY2VzLlNlYXJjaFRleHQQAhgEIAA,Gunshow
Habitat Kitchen & Bar,Atlanta,GA,USA,"310 Pharr Rd NE, Atlanta, GA 30305, USA",http://habitat-atl.com/,33.8373299,-84.3776887,ChIJ4SAlDY0F9YgRiAaEltn7YU8,https://maps.google.com/?cid=5720129913688950408&g_mp=Cidnb29nbGUubWFwcy5wbGFjZXMudjEuUGxhY2VzLlNlYXJjaFRleHQQAhgEIAA,Habitat Kitchen & Bar
Hayakawa,Atlanta,GA,USA,"1055 Howell Ml Rd, Atlanta, GA 30318, USA",http://www.sushihayakawa.com/,33.7835093,-84.4110424,ChIJD9CHgFyn9YgRO1bt1qCxE0I,https://maps.google.com/?cid=4761344535419508283&g_mp=Cidnb29nbGUubWFwcy5wbGFjZXMudjEuUGxhY2VzLlNlYXJjaFRleHQQAhgEIAA,Hayakawa
High Note Rooftop Bar & Lounge Restaurant,Atlanta,GA,USA,"53 14th St NE, Atlanta, GA 30309, USA",http://highnoteatl.com/,33.7860145,-84.3860702,ChIJaTCwX1QF9YgR2IxSp9sDsEA,https://maps.google.com/?cid=4661229856268389592&g_mp=Cidnb29nbGUubWFwcy5wbGFjZXMudjEuUGxhY2VzLlNlYXJjaFRleHQQAhgEIAA,High Note Rooftop Bar
Highland Tap,Atlanta,GA,USA,"1026 N Highland Ave NE, Atlanta, GA 30306, USA",,33.7825413,-84.3546336,ChIJQRlsgyAE9YgRnhgOPZsGZmA,https://maps.google.com/?cid=6946246739079600286&g_mp=Cidnb29nbGUubWFwcy5wbGFjZXMudjEuUGxhY2VzLlNlYXJjaFRleHQQAhgEIAA,Highland Tap
Humble Pie - Atlanta,Atlanta,GA,USA,"1115 Howell Mill Rd NW, Atlanta, GA 30318, USA",http://www.humblepieatl.com/,33.784979,-84.4116282,ChIJq1gMN_oF9YgRjEYfBY69Z0Q,https://maps.google.com/?cid=4929116734849238668&g_mp=Cidnb29nbGUubWFwcy5wbGFjZXMudjEuUGxhY2VzLlNlYXJjaFRleHQQAhgEIAA,Humble Pie
Il Premio,Atlanta,GA,USA,"800 Rankin St NE 1st Floor, Atlanta, GA 30308, USA",https://www.ilpremioatlanta.com/?utm_source=google&utm_medium=Local&utm_campaign=Google+My+Business,33.7684597,-84.3633982,ChIJ2QakREwF9YgRU84U3m73Bck,https://maps.google.com/?cid=14485255832051437139&g_mp=Cidnb29nbGUubWFwcy5wbGFjZXMudjEuUGxhY2VzLlNlYXJjaFRleHQQAhgEIAA,Il Premio
J. Alexander's Atlanta,Atlanta,GA,USA,"4701 Ashford Dunwoody Rd, Atlanta, GA 30338, USA",https://jalexanders.com/,33.932058,-84.3368957,ChIJw-c4GF8J9YgRIuvQiCn3qGc,https://maps.google.com/?cid=7469491739755080482&g_mp=Cidnb29nbGUubWFwcy5wbGFjZXMudjEuUGxhY2VzLlNlYXJjaFRleHQQAhgEIAA,J. Alexander's Restaurant
J. Alexander’s Norcross,Atlanta,GA,USA,"5245 Peachtree Pkwy, Peachtree Corners, GA 30092, USA",https://jalexanders.com/,33.9784279,-84.2182465,ChIJ43jCv6ih9YgR2YzRT3Gvrrg,https://maps.google.com/?cid=13307766850131692761&g_mp=Cidnb29nbGUubWFwcy5wbGFjZXMudjEuUGxhY2VzLlNlYXJjaFRleHQQAhgEIAA,J. Alexander's Restaurant
J'ouvert Caribbean Kitchen & Bar,Atlanta,GA,USA,"558 Main St NE, Atlanta, GA 30324, USA",https://www.jouvertkitchenatl.com/,33.8226698,-84.3688724,ChIJdUyk-CkF9YgR1-BYxI-ZZs4,https://maps.google.com/?cid=14872743662191173847&g_mp=Cidnb29nbGUubWFwcy5wbGFjZXMudjEuUGxhY2VzLlNlYXJjaFRleHQQAhgEIAA,J'ouvert Caribbean Kitchen & Bar
JenChan's,Atlanta,GA,USA,"186 Carroll St SE, Atlanta, GA 30312, USA",https://www.jenchans.com/,33.7495145,-84.3679665,ChIJz9jS4rAD9YgRFGLYsx3a_EM,https://maps.google.com/?cid=4899030315778466324&g_mp=Cidnb29nbGUubWFwcy5wbGFjZXMudjEuUGxhY2VzLlNlYXJjaFRleHQQAhgEIAA,JenChan's
Jojo's Beloved Cocktail Lounge,Atlanta,GA,USA,"1197 Peachtree St NE, Atlanta, GA 30309, USA",http://jojosbeloved.com/,33.787162,-84.3816341,ChIJs7V3FtgF9YgRO3rBrJQqVnU,https://maps.google.com/?cid=8454992168476572219&g_mp=Cidnb29nbGUubWFwcy5wbGFjZXMudjEuUGxhY2VzLlNlYXJjaFRleHQQAhgEIAA,Jojo’s Beloved Cocktail Lounge
k|n,Atlanta,GA,USA,"881 Donald Lee Hollowell Pkwy NW, Atlanta, GA 30318, USA",http://www.kksoulfood.com/,33.7734078,-84.4161533,ChIJq2LliEMb9YgRC29mekmcYk0,https://maps.google.com/?cid=5576191128038174475&g_mp=Cidnb29nbGUubWFwcy5wbGFjZXMudjEuUGxhY2VzLlNlYXJjaFRleHQQAhgEIAA,K & K Soul Food
Kevin Rathbun Steak,Atlanta,GA,USA,"154 Krog St NE STE 200, Atlanta, GA 30307, USA",http://www.kevinrathbunsteak.com/,33.7592497,-84.3639437,ChIJ8cCo6QcE9YgRlrqsWTsW-UM,https://maps.google.com/?cid=4897970513905498774&g_mp=Cidnb29nbGUubWFwcy5wbGFjZXMudjEuUGxhY2VzLlNlYXJjaFRleHQQAhgEIAA,Kevin Rathbun Steak
Kimball House,Atlanta,GA,USA,"303 E Howard Ave, Decatur, GA 30030, USA",http://www.kimball-house.com/,33.771596,-84.2922819,ChIJHatDOT8H9YgRE9zxI4xpacI,https://maps.google.com/?cid=14008844166532029459&g_mp=Cidnb29nbGUubWFwcy5wbGFjZXMudjEuUGxhY2VzLlNlYXJjaFRleHQQAhgEIAA,Kimball House
Kindred,Atlanta,GA,USA,"2751 Lavista Rd, Decatur, GA 30033, USA",http://kindreddecatur.com/,33.8238292,-84.2937145,ChIJ-aMvbi4H9YgRo4urDYATY9I,https://maps.google.com/?cid=15159982211365309347&g_mp=Cidnb29nbGUubWFwcy5wbGFjZXMudjEuUGxhY2VzLlNlYXJjaFRleHQQAhgEIAA,Kindred
Kitchen + Kocktails by Kevin Kelley - Atlanta,Atlanta,GA,USA,"4400 Ashford Dunwoody Rd Space #3030, Dunwoody, Atlanta, GA 30346, USA",https://kitchenkocktailsusa.com/atlanta/,33.9231369,-84.3398704,ChIJQ4UABPcJ9YgR6_ydUUKL8QE,https://maps.google.com/?cid=140046180378606827&g_mp=Cidnb29nbGUubWFwcy5wbGFjZXMudjEuUGxhY2VzLlNlYXJjaFRleHQQAhgEIAA,Kitchen + Kocktails By Kevin Kelley - Atlanta
Kitty Dare,Atlanta,GA,USA,"1029 Edgewood Ave NE, Atlanta, GA 30307, USA",http://kittydare.com/,33.7571779,-84.3541609,ChIJ5WSOfkwH9YgR1HE3FNdQE6k,https://maps.google.com/?cid=12183170301654692308&g_mp=Cidnb29nbGUubWFwcy5wbGFjZXMudjEuUGxhY2VzLlNlYXJjaFRleHQQAhgEIAA,Kitty Dare
KR SteakBar,Atlanta,GA,USA,"349 Peachtree Hills Ave NE, Atlanta, GA 30305, USA",http://www.krsteakbar.com/,33.8176006,-84.3761396,ChIJaduAlrgF9YgR-Tfh9G32S3o,https://maps.google.com/?cid=8812408048000776185&g_mp=Cidnb29nbGUubWFwcy5wbGFjZXMudjEuUGxhY2VzLlNlYXJjaFRleHQQAhgEIAA,KR SteakBar
La Semilla,Atlanta,GA,USA,"780 Memorial Dr SE Unit 4A, Atlanta, GA 30316, USA",https://www.lasemilla.kitchen/,33.7468152,-84.3616128,ChIJf1xHTeED9YgRyPGIQJXxNW0,https://maps.google.com/?cid=7869461547234947528&g_mp=Cidnb29nbGUubWFwcy5wbGFjZXMudjEuUGxhY2VzLlNlYXJjaFRleHQQAhgEIAA,La Semilla
Le Bon Nosh,Atlanta,GA,USA,"65 Irby Ave NW Suite 103, Atlanta, GA 30305, USA",http://lebonnosh.com/,33.8413993,-84.3814785,ChIJ2TAEJdsF9YgR-0zzJpn87gY,https://maps.google.com/?cid=499614343398378747&g_mp=Cidnb29nbGUubWFwcy5wbGFjZXMudjEuUGxhY2VzLlNlYXJjaFRleHQQAhgEIAA,Le Bon Nosh
"Liam's Restaurant, Lounge and Cheese Shoppe",Atlanta,GA,USA,"G31792, 113 E Jackson St, Thomasville, GA 31792, USA",http://www.liamsthomasville.com/,30.8379918,-83.9798949,ChIJb2m8Ci607YgRl0kBlcCTFL8,https://maps.google.com/?cid=13768792416121342359&g_mp=Cidnb29nbGUubWFwcy5wbGFjZXMudjEuUGxhY2VzLlNlYXJjaFRleHQQAhgEIAA,Liam's Restaurant
Lilah Grey,Atlanta,GA,USA,"7 Spring St, Newnan, GA 30263, USA",https://lilahgreynewnan.com/,33.3736657,-84.7992051,ChIJKwmvAwDJ9IgRFYPTecWB3kY,https://maps.google.com/?cid=5106661712637166357&g_mp=Cidnb29nbGUubWFwcy5wbGFjZXMudjEuUGxhY2VzLlNlYXJjaFRleHQQAhgEIAA,Lilah Grey
Little Alley Steak - Buckhead,Atlanta,GA,USA,"3500 Lenox Rd NE #100, Atlanta, GA 30326, USA",https://www.littlealleysteak.com/,33.8520311,-84.3662805,ChIJWTQWLlNz9YgRGtcFhIWzSc8,https://maps.google.com/?cid=14936667025177958170&g_mp=Cidnb29nbGUubWFwcy5wbGFjZXMudjEuUGxhY2VzLlNlYXJjaFRleHQQAhgEIAA,Little Alley Steak Buckhead
Little Bear,Atlanta,GA,USA,"71 Georgia Ave SE Unit A, Atlanta, GA 30312, USA",https://littlebearatl.com/,33.7366828,-84.3854586,ChIJnz5JKsYD9YgRYVyGgN7um_o,https://maps.google.com/?cid=18058289770278575201&g_mp=Cidnb29nbGUubWFwcy5wbGFjZXMudjEuUGxhY2VzLlNlYXJjaFRleHQQAhgEIAA,Little Bear
Local Republic,Atlanta,GA,USA,"139 N Perry St, Lawrenceville, GA 30046, USA",https://www.localrepublic.com/,33.9566272,-83.9898643,ChIJP7WW_fO-9YgRIDIrehkRqgI,https://maps.google.com/?cid=191984735238173216&g_mp=Cidnb29nbGUubWFwcy5wbGFjZXMudjEuUGxhY2VzLlNlYXJjaFRleHQQAhgEIAA,Local Republic
Louisiana Bistreaux - Buckhead,Atlanta,GA,USA,"3312 Piedmont Rd NE, Atlanta, GA 30305, USA",https://www.louisianabistreaux.com/,33.8448248,-84.3722386,ChIJdeVPuukF9YgRYrwPGtgCH0A,https://maps.google.com/?cid=4620414869878848610&g_mp=Cidnb29nbGUubWFwcy5wbGFjZXMudjEuUGxhY2VzLlNlYXJjaFRleHQQAhgEIAA,Louisiana Bistreaux Seafood Kitchen Buckhead
